
  85471705, $GPGGA,234431.00,3908.5439673,N,09622.0751947,W,1,09,1.07,330.6609,M,-28.2913,M,,*68
  85471705, $GNGSA,M,3,20,14,10,31,24,21,08,,,,,,1.96,1.07,1.64*12
  85471705, $GNGSA,M,3,86,72,,,,,,,,,,,1.96,1.07,1.64*10
  85471705, $GPZDA,234431.00,30,08,2019,00,00*64
  85471705, $GNVTG,266.354,T,,M,0.0499,N,0.0924,K,A*18
  85472704, $GPGGA,234432.00,3908.5439750,N,09622.0753489,W,1,09,1.07,330.8091,M,-28.2913,M,,*6F
  85472704, $GNGSA,M,3,20,14,10,31,24,21,08,,,,,,1.96,1.07,1.64*12
  85472704, $GNGSA,M,3,86,72,,,,,,,,,,,1.96,1.07,1.64*10
  85472704, $GPZDA,234432.00,30,08,2019,00,00*67
  85472704, $GNVTG,300.791,T,,M,0.4530,N,0.8390,K,A*1F
  85473704, $GPGGA,234433.00,3908.5443389,N,09622.0754898,W,1,10,0.98,330.4121,M,-28.2913,M,,*61
  85473704, $GNGSA,M,3,20,14,10,31,24,21,18,08,,,,,1.73,0.98,1.43*12
  85473704, $GNGSA,M,3,86,72,,,,,,,,,,,1.73,0.98,1.43*19
  85473704, $GPZDA,234433.00,30,08,2019,00,00*66
  85473704, $GNVTG,346.581,T,,M,1.9320,N,3.5780,K,A*1E
  85474704, $GPGGA,234434.00,3908.5448452,N,09622.0758817,W,1,10,0.98,330.3884,M,-28.2913,M,,*66
  85474704, $GNGSA,M,3,20,14,10,31,24,21,18,08,,,,,1.73,0.98,1.43*12
  85474704, $GNGSA,M,3,86,72,,,,,,,,,,,1.73,0.98,1.43*19
  85474704, $GPZDA,234434.00,30,08,2019,00,00*61
  85474704, $GNVTG,328.145,T,,M,2.2306,N,4.1310,K,A*18
  85475704, $GPGGA,234435.00,3908.5455313,N,09622.0763931,W,1,11,0.96,330.5008,M,-28.2913,M,,*61
  85475704, $GNGSA,M,3,20,14,10,31,24,21,18,08,,,,,1.72,0.96,1.43*1D
  85475704, $GNGSA,M,3,88,86,72,,,,,,,,,,1.72,0.96,1.43*16
  85475704, $GPZDA,234435.00,30,08,2019,00,00*60
  85475704, $GNVTG,327.208,T,,M,3.0052,N,5.5656,K,A*1E
  85476704, $GPGGA,234436.00,3908.5463779,N,09622.0758734,W,1,13,0.76,327.7029,M,-28.2913,M,,*67
  85476704, $GNGSA,M,3,20,14,10,31,24,21,18,08,32,,,,1.38,0.76,1.15*1F
  85476704, $GNGSA,M,3,88,73,86,72,,,,,,,,,1.38,0.76,1.15*11
  85476704, $GPZDA,234436.00,30,08,2019,00,00*63
  85476704, $GNVTG,325.629,T,,M,2.8408,N,5.2611,K,A*1D
  85477705, $GPGGA,234437.00,3908.5469869,N,09622.0761643,W,1,13,0.76,327.4940,M,-28.2913,M,,*6C
  85477705, $GNGSA,M,3,20,14,10,31,24,21,18,08,32,,,,1.38,0.76,1.15*1F
  85477705, $GNGSA,M,3,88,73,86,72,,,,,,,,,1.38,0.76,1.15*11
  85477705, $GPZDA,234437.00,30,08,2019,00,00*62
  85477705, $GNVTG,325.943,T,,M,2.2673,N,4.1990,K,A*1E
  85478705, $GPGGA,234438.00,3908.5476681,N,09622.0765336,W,1,13,0.76,327.2717,M,-28.2913,M,,*6C
  85478705, $GNGSA,M,3,20,14,10,31,24,21,18,08,32,,,,1.38,0.76,1.15*1F
  85478705, $GNGSA,M,3,88,73,86,72,,,,,,,,,1.38,0.76,1.15*11
  85478705, $GPZDA,234438.00,30,08,2019,00,00*6D
  85478705, $GNVTG,332.612,T,,M,2.5081,N,4.6450,K,A*19
  85479705, $GPGGA,234439.00,3908.5482640,N,09622.0770150,W,1,13,0.76,327.3093,M,-28.2913,M,,*67
  85479705, $GNGSA,M,3,20,14,10,31,24,21,18,08,32,,,,1.38,0.76,1.15*1F
  85479705, $GNGSA,M,3,88,73,86,72,,,,,,,,,1.38,0.76,1.15*11
  85479705, $GPZDA,234439.00,30,08,2019,00,00*6C
  85479705, $GNVTG,337.441,T,,M,2.9020,N,5.3745,K,A*1C
  85480704, $GPGGA,234440.00,3908.5488842,N,09622.0773867,W,1,13,0.76,327.3448,M,-28.2913,M,,*63
  85480704, $GNGSA,M,3,20,14,10,31,24,21,18,08,32,,,,1.38,0.76,1.15*1F
  85480704, $GNGSA,M,3,88,73,86,72,,,,,,,,,1.38,0.76,1.15*11
  85480704, $GPZDA,234440.00,30,08,2019,00,00*62
  85480704, $GNVTG,351.027,T,,M,2.1653,N,4.0101,K,A*16
  85481705, $GPGGA,234441.00,3908.5495380,N,09622.0777325,W,1,13,0.76,327.5639,M,-28.2913,M,,*60
  85481705, $GNGSA,M,3,20,14,10,31,24,21,18,08,32,,,,1.38,0.76,1.15*1F
  85481705, $GNGSA,M,3,88,73,86,72,,,,,,,,,1.38,0.76,1.15*11
  85481705, $GPZDA,234441.00,30,08,2019,00,00*63
  85481705, $GNVTG,341.769,T,,M,2.4983,N,4.6268,K,A*17
  85482704, $GPGGA,234442.00,3908.5499530,N,09622.0790989,W,1,12,0.80,330.8997,M,-28.2913,M,,*6F
  85482704, $GNGSA,M,3,20,14,10,31,24,21,18,08,,,,,1.52,0.80,1.29*14
  85482704, $GNGSA,M,3,88,73,86,72,,,,,,,,,1.52,0.80,1.29*1B
  85482704, $GPZDA,234442.00,30,08,2019,00,00*60
  85482704, $GNVTG,326.340,T,,M,2.2868,N,4.2352,K,A*17
  85483704, $GPGGA,234443.00,3908.5505674,N,09622.0785513,W,1,14,0.73,328.8088,M,-28.2913,M,,*66
  85483704, $GNGSA,M,3,20,14,10,31,24,21,18,08,32,,,,1.30,0.73,1.08*1E
  85483704, $GNGSA,M,3,88,73,86,72,87,,,,,,,,1.30,0.73,1.08*1F
  85483704, $GPZDA,234443.00,30,08,2019,00,00*61
  85483704, $GNVTG,324.651,T,,M,2.4397,N,4.5183,K,A*14
  85484704, $GPGGA,234444.00,3908.5514114,N,09622.0790908,W,1,13,0.80,328.5383,M,-28.2913,M,,*6C
  85484704, $GNGSA,M,3,20,14,10,31,24,21,08,32,,,,,1.47,0.80,1.23*12
  85484704, $GNGSA,M,3,88,73,86,72,87,,,,,,,,1.47,0.80,1.23*1A
  85484704, $GPZDA,234444.00,30,08,2019,00,00*66
  85484704, $GNVTG,337.654,T,,M,2.5248,N,4.6760,K,A*19
  85485705, $GPGGA,234445.00,3908.5520546,N,09622.0791655,W,1,13,0.80,328.1312,M,-28.2913,M,,*63
  85485705, $GNGSA,M,3,20,14,10,31,24,21,08,32,,,,,1.47,0.80,1.23*12
  85485705, $GNGSA,M,3,88,73,86,72,87,,,,,,,,1.47,0.80,1.23*1A
  85485705, $GPZDA,234445.00,30,08,2019,00,00*67
  85485705, $GNVTG,346.929,T,,M,2.9244,N,5.4160,K,A*1F
  85486705, $GPGGA,234446.00,3908.5528440,N,09622.0793975,W,1,13,0.80,327.5899,M,-28.2912,M,,*62
  85486705, $GNGSA,M,3,20,14,10,31,24,21,08,32,,,,,1.47,0.80,1.23*12
  85486705, $GNGSA,M,3,88,73,86,72,87,,,,,,,,1.47,0.80,1.23*1A
  85486705, $GPZDA,234446.00,30,08,2019,00,00*64
  85486705, $GNVTG,344.258,T,,M,2.8616,N,5.2998,K,A*1B
  85487704, $GPGGA,234447.00,3908.5536499,N,09622.0797269,W,1,13,0.80,327.4188,M,-28.2912,M,,*62
  85487704, $GNGSA,M,3,20,14,10,31,24,21,08,32,,,,,1.47,0.80,1.23*12
  85487704, $GNGSA,M,3,88,73,86,72,87,,,,,,,,1.47,0.80,1.23*1A
  85487704, $GPZDA,234447.00,30,08,2019,00,00*65
  85487704, $GNVTG,339.865,T,,M,2.7795,N,5.1477,K,A*1F
  85488704, $GPGGA,234448.00,3908.5544166,N,09622.0801386,W,1,13,0.80,327.5786,M,-28.2912,M,,*64
  85488704, $GNGSA,M,3,20,14,10,31,24,21,08,32,,,,,1.47,0.80,1.23*12
  85488704, $GNGSA,M,3,88,73,86,72,87,,,,,,,,1.47,0.80,1.23*1A
  85488704, $GPZDA,234448.00,30,08,2019,00,00*6A
  85488704, $GNVTG,337.610,T,,M,2.8619,N,5.3003,K,A*12
  85489705, $GPGGA,234449.00,3908.5552090,N,09622.0806183,W,1,13,0.80,327.8604,M,-28.2912,M,,*6C
  85489705, $GNGSA,M,3,20,14,10,31,24,21,08,32,,,,,1.47,0.80,1.23*12
  85489705, $GNGSA,M,3,88,73,86,72,87,,,,,,,,1.47,0.80,1.23*1A
  85489705, $GPZDA,234449.00,30,08,2019,00,00*6B
  85489705, $GNVTG,332.192,T,,M,3.0386,N,5.6274,K,A*17
  85490705, $GPGGA,234450.00,3908.5560394,N,09622.0810681,W,1,13,0.80,327.8124,M,-28.2912,M,,*65
  85490705, $GNGSA,M,3,20,14,10,31,24,21,08,32,,,,,1.47,0.80,1.23*12
  85490705, $GNGSA,M,3,88,73,86,72,87,,,,,,,,1.47,0.80,1.23*1A
  85490705, $GPZDA,234450.00,30,08,2019,00,00*63
  85490705, $GNVTG,329.458,T,,M,2.4599,N,4.5558,K,A*18
  85491704, $GPGGA,234451.00,3908.5567156,N,09622.0812684,W,1,12,0.86,327.9551,M,-28.2912,M,,*68
  85491704, $GNGSA,M,3,20,14,10,31,24,21,08,32,,,,,1.52,0.86,1.26*15
  85491704, $GNGSA,M,3,73,86,72,87,,,,,,,,,1.52,0.86,1.26*1D
  85491704, $GPZDA,234451.00,30,08,2019,00,00*62
  85491704, $GNVTG,342.348,T,,M,2.5209,N,4.6687,K,A*1E
  85492706, $GPGGA,234452.00,3908.5571961,N,09622.0816515,W,1,14,0.73,329.1169,M,-28.2912,M,,*6A
  85492706, $GNGSA,M,3,20,14,10,31,24,21,18,08,32,,,,1.30,0.73,1.08*1E
  85492706, $GNGSA,M,3,88,73,86,72,87,,,,,,,,1.30,0.73,1.08*1F
  85492706, $GPZDA,234452.00,30,08,2019,00,00*61
  85492706, $GNVTG,350.702,T,,M,2.7424,N,5.0789,K,A*14
  85493706, $GPGGA,234453.00,3908.5579036,N,09622.0823659,W,1,14,0.73,330.0469,M,-28.2912,M,,*69
  85493706, $GNGSA,M,3,20,14,10,31,24,21,18,08,32,,,,1.30,0.73,1.08*1E
  85493706, $GNGSA,M,3,88,73,86,72,87,,,,,,,,1.30,0.73,1.08*1F
  85493706, $GPZDA,234453.00,30,08,2019,00,00*60
  85493706, $GNVTG,347.073,T,,M,2.8050,N,5.1948,K,A*19
  85494705, $GPGGA,234454.00,3908.5584859,N,09622.0824969,W,1,14,0.73,329.5268,M,-28.2912,M,,*6C
  85494705, $GNGSA,M,3,20,14,10,31,24,21,18,08,32,,,,1.30,0.73,1.08*1E
  85494705, $GNGSA,M,3,88,73,86,72,87,,,,,,,,1.30,0.73,1.08*1F
  85494705, $GPZDA,234454.00,30,08,2019,00,00*67
  85494705, $GNVTG,345.308,T,,M,2.6756,N,4.9553,K,A*14
  85495704, $GPGGA,234455.00,3908.5591543,N,09622.0834025,W,1,12,0.79,331.9311,M,-28.2912,M,,*69
  85495704, $GNGSA,M,3,20,14,10,31,24,21,18,,,,,,1.46,0.79,1.23*15
  85495704, $GNGSA,M,3,88,73,86,72,87,,,,,,,,1.46,0.79,1.23*1D
  85495704, $GPZDA,234455.00,30,08,2019,00,00*66
  85495704, $GNVTG,342.886,T,,M,2.6142,N,4.8416,K,A*1C
  85496705, $GPGGA,234456.00,3908.5599657,N,09622.0837055,W,1,13,0.75,331.7222,M,-28.2912,M,,*62
  85496705, $GNGSA,M,3,20,14,10,31,24,21,18,08,,,,,1.40,0.75,1.18*1F
  85496705, $GNGSA,M,3,88,73,86,72,87,,,,,,,,1.40,0.75,1.18*1F
  85496705, $GPZDA,234456.00,30,08,2019,00,00*65
  85496705, $GNVTG,332.416,T,,M,2.8717,N,5.3185,K,A*13
  85497705, $GPGGA,234457.00,3908.5608565,N,09622.0839750,W,1,13,0.75,331.1398,M,-28.2912,M,,*60
  85497705, $GNGSA,M,3,20,14,10,31,24,21,18,08,,,,,1.40,0.75,1.18*1F
  85497705, $GNGSA,M,3,88,73,86,72,87,,,,,,,,1.40,0.75,1.18*1F
  85497705, $GPZDA,234457.00,30,08,2019,00,00*64
  85497705, $GNVTG,338.374,T,,M,2.5169,N,4.6614,K,A*13
  85498706, $GPGGA,234458.00,3908.5617184,N,09622.0844001,W,1,12,0.79,330.7072,M,-28.2912,M,,*6E
  85498706, $GNGSA,M,3,20,14,10,31,24,21,18,,,,,,1.46,0.79,1.23*15
  85498706, $GNGSA,M,3,88,73,86,72,87,,,,,,,,1.46,0.79,1.23*1D
  85498706, $GPZDA,234458.00,30,08,2019,00,00*6B
  85498706, $GNVTG,346.645,T,,M,2.5982,N,4.8119,K,A*14
  85499705, $GPGGA,234459.00,3908.5619954,N,09622.0845064,W,1,12,0.82,331.5200,M,-28.2912,M,,*66
  85499705, $GNGSA,M,3,20,14,10,31,24,21,08,,,,,,1.56,0.82,1.33*10
  85499705, $GNGSA,M,3,88,73,86,72,87,,,,,,,,1.56,0.82,1.33*19
  85499705, $GPZDA,234459.00,30,08,2019,00,00*6A
  85499705, $GNVTG,014.160,T,,M,1.3114,N,2.4287,K,A*1C
  85500705, $GPGGA,234500.00,3908.5623582,N,09622.0844853,W,1,13,0.77,331.0990,M,-28.2912,M,,*64
  85500705, $GNGSA,M,3,20,14,10,31,24,21,18,,,,,,1.45,0.77,1.23*18
  85500705, $GNGSA,M,3,88,73,65,86,72,87,,,,,,,1.45,0.77,1.23*13
  85500705, $GPZDA,234500.00,30,08,2019,00,00*67
  85500705, $GNVTG,325.982,T,,M,1.0428,N,1.9312,K,A*13
  85501705, $GPGGA,234501.00,3908.5626619,N,09622.0842764,W,1,12,0.80,331.4115,M,-28.2912,M,,*64
  85501705, $GNGSA,M,3,20,14,10,24,21,18,32,,,,,,1.55,0.80,1.32*12
  85501705, $GNGSA,M,3,73,65,86,72,87,,,,,,,,1.55,0.80,1.32*1A
  85501705, $GPZDA,234501.00,30,08,2019,00,00*66
  85501705, $GNVTG,129.335,T,,M,0.6360,N,1.1779,K,A*16
  85502704, $GPGGA,234502.00,3908.5617718,N,09622.0843392,W,1,14,0.73,327.8166,M,-28.2912,M,,*6C
  85502704, $GNGSA,M,3,20,14,10,24,21,18,08,32,,,,,1.39,0.73,1.18*14
  85502704, $GNGSA,M,3,71,73,65,86,72,87,,,,,,,1.39,0.73,1.18*12
  85502704, $GPZDA,234502.00,30,08,2019,00,00*65
  85502704, $GNVTG,161.680,T,,M,2.0469,N,3.7908,K,A*17
  85503705, $GPGGA,234503.00,3908.5612439,N,09622.0839706,W,1,14,0.73,328.3998,M,-28.2912,M,,*61
  85503705, $GNGSA,M,3,20,14,10,24,21,18,08,32,,,,,1.39,0.73,1.18*14
  85503705, $GNGSA,M,3,71,73,65,86,72,87,,,,,,,1.39,0.73,1.18*12
  85503705, $GPZDA,234503.00,30,08,2019,00,00*64
  85503705, $GNVTG,166.722,T,,M,2.4088,N,4.4611,K,A*15
  85504705, $GPGGA,234504.00,3908.5606874,N,09622.0836517,W,1,15,0.72,328.9156,M,-28.2912,M,,*6B
  85504705, $GNGSA,M,3,27,20,14,10,24,21,18,08,32,,,,1.35,0.72,1.14*10
  85504705, $GNGSA,M,3,71,73,65,86,72,87,,,,,,,1.35,0.72,1.14*13
  85504705, $GPZDA,234504.00,30,08,2019,00,00*63
  85504705, $GNVTG,153.227,T,,M,2.1314,N,3.9473,K,A*1C
  85505706, $GPGGA,234505.00,3908.5601325,N,09622.0833223,W,1,13,0.87,329.2186,M,-28.2912,M,,*6C
  85505706, $GNGSA,M,3,27,14,10,24,21,18,08,32,,,,,1.59,0.87,1.33*17
  85505706, $GNGSA,M,3,71,73,65,72,87,,,,,,,,1.59,0.87,1.33*18
  85505706, $GPZDA,234505.00,30,08,2019,00,00*62
  85505706, $GNVTG,139.713,T,,M,2.1128,N,3.9129,K,A*15
  85506704, $GPGGA,234506.00,3908.5596436,N,09622.0828907,W,1,13,0.86,329.9059,M,-28.2912,M,,*69
  85506704, $GNGSA,M,3,27,14,10,24,21,18,08,32,,,,,1.59,0.86,1.33*16
  85506704, $GNGSA,M,3,71,73,65,72,87,,,,,,,,1.59,0.86,1.33*19
  85506704, $GPZDA,234506.00,30,08,2019,00,00*61
  85506704, $GNVTG,138.707,T,,M,2.5075,N,4.6438,K,A*11
  85507704, $GPGGA,234507.00,3908.5590322,N,09622.0824964,W,1,13,0.86,330.4013,M,-28.2912,M,,*6E
  85507704, $GNGSA,M,3,27,14,10,24,21,18,08,32,,,,,1.59,0.86,1.33*16
  85507704, $GNGSA,M,3,71,73,65,72,87,,,,,,,,1.59,0.86,1.33*19
  85507704, $GPZDA,234507.00,30,08,2019,00,00*60
  85507704, $GNVTG,143.385,T,,M,2.3926,N,4.4311,K,A*14
  85508705, $GPGGA,234508.00,3908.5584498,N,09622.0821224,W,1,13,0.86,330.6574,M,-28.2912,M,,*6E
  85508705, $GNGSA,M,3,27,14,10,24,21,18,08,32,,,,,1.59,0.86,1.33*16
  85508705, $GNGSA,M,3,71,73,65,72,87,,,,,,,,1.59,0.86,1.33*19
  85508705, $GPZDA,234508.00,30,08,2019,00,00*6F
  85508705, $GNVTG,150.075,T,,M,2.1782,N,4.0341,K,A*19
  85509705, $GPGGA,234509.00,3908.5578710,N,09622.0817322,W,1,13,0.86,330.9610,M,-28.2912,M,,*63
  85509705, $GNGSA,M,3,27,14,10,24,21,18,08,32,,,,,1.59,0.86,1.33*16
  85509705, $GNGSA,M,3,71,73,65,72,87,,,,,,,,1.59,0.86,1.33*19
  85509705, $GPZDA,234509.00,30,08,2019,00,00*6E
  85509705, $GNVTG,162.170,T,,M,2.5971,N,4.8098,K,A*15
  85510704, $GPGGA,234510.00,3908.5573157,N,09622.0813225,W,1,13,0.86,331.1919,M,-28.2912,M,,*68
  85510704, $GNGSA,M,3,27,14,10,24,21,18,08,32,,,,,1.59,0.86,1.33*16
  85510704, $GNGSA,M,3,71,73,65,72,87,,,,,,,,1.59,0.86,1.33*19
  85510704, $GPZDA,234510.00,30,08,2019,00,00*66
  85510704, $GNVTG,158.056,T,,M,2.4899,N,4.6112,K,A*12
  85511705, $GPGGA,234511.00,3908.5569935,N,09622.0812524,W,1,12,1.16,331.6031,M,-28.2912,M,,*64
  85511705, $GNGSA,M,3,27,14,10,24,18,08,32,,,,,,1.80,1.16,1.38*12
  85511705, $GNGSA,M,3,71,73,65,72,87,,,,,,,,1.80,1.16,1.38*1E
  85511705, $GPZDA,234511.00,30,08,2019,00,00*67
  85511705, $GNVTG,151.930,T,,M,2.8320,N,5.2448,K,A*18
  85512706, $GPGGA,234512.00,3908.5559929,N,09622.0805318,W,1,13,0.86,331.2089,M,-28.2912,M,,*68
  85512706, $GNGSA,M,3,27,14,10,24,21,18,08,32,,,,,1.59,0.86,1.33*16
  85512706, $GNGSA,M,3,71,73,65,72,87,,,,,,,,1.59,0.86,1.33*19
  85512706, $GPZDA,234512.00,30,08,2019,00,00*64
  85512706, $GNVTG,151.548,T,,M,2.9055,N,5.3810,K,A*1B
  85513705, $GPGGA,234513.00,3908.5554010,N,09622.0801392,W,1,13,0.86,331.5725,M,-28.2912,M,,*67
  85513705, $GNGSA,M,3,27,14,10,24,21,18,08,32,,,,,1.59,0.86,1.33*16
  85513705, $GNGSA,M,3,71,73,65,72,87,,,,,,,,1.59,0.86,1.33*19
  85513705, $GPZDA,234513.00,30,08,2019,00,00*65
  85513705, $GNVTG,147.457,T,,M,2.8367,N,5.2535,K,A*1B
  85514704, $GPGGA,234514.00,3908.5547612,N,09622.0797251,W,1,13,0.86,331.8594,M,-28.2912,M,,*6D
  85514704, $GNGSA,M,3,27,14,10,24,21,18,08,32,,,,,1.59,0.86,1.33*16
  85514704, $GNGSA,M,3,71,73,65,72,87,,,,,,,,1.59,0.86,1.33*19
  85514704, $GPZDA,234514.00,30,08,2019,00,00*62
  85514704, $GNVTG,141.726,T,,M,2.5545,N,4.7310,K,A*16
  85515705, $GPGGA,234515.00,3908.5540512,N,09622.0793361,W,1,13,0.86,331.6830,M,-28.2912,M,,*63
  85515705, $GNGSA,M,3,27,14,10,24,21,18,08,32,,,,,1.59,0.86,1.33*16
  85515705, $GNGSA,M,3,71,73,65,72,87,,,,,,,,1.59,0.86,1.33*19
  85515705, $GPZDA,234515.00,30,08,2019,00,00*63
  85515705, $GNVTG,155.719,T,,M,2.3592,N,4.3693,K,A*19
  85516705, $GPGGA,234516.00,3908.5533462,N,09622.0789081,W,1,13,0.86,331.5993,M,-28.2913,M,,*6E
  85516705, $GNGSA,M,3,27,14,10,24,21,18,08,32,,,,,1.59,0.86,1.33*16
  85516705, $GNGSA,M,3,71,73,65,72,87,,,,,,,,1.59,0.86,1.33*19
  85516705, $GPZDA,234516.00,30,08,2019,00,00*60
  85516705, $GNVTG,160.753,T,,M,3.0195,N,5.5922,K,A*12
  85517704, $GPGGA,234517.00,3908.5525176,N,09622.0783595,W,1,13,0.86,331.3445,M,-28.2913,M,,*62
  85517704, $GNGSA,M,3,27,14,10,24,21,18,08,32,,,,,1.59,0.86,1.33*16
  85517704, $GNGSA,M,3,71,73,65,72,87,,,,,,,,1.59,0.86,1.33*19
  85517704, $GPZDA,234517.00,30,08,2019,00,00*61
  85517704, $GNVTG,169.032,T,,M,2.5024,N,4.6344,K,A*1C
  85518705, $GPGGA,234518.00,3908.5518682,N,09622.0780538,W,1,13,0.86,331.3936,M,-28.2913,M,,*62
  85518705, $GNGSA,M,3,27,14,10,24,21,18,08,32,,,,,1.59,0.86,1.33*16
  85518705, $GNGSA,M,3,71,73,65,72,87,,,,,,,,1.59,0.86,1.33*19
  85518705, $GPZDA,234518.00,30,08,2019,00,00*6E
  85518705, $GNVTG,162.089,T,,M,2.5108,N,4.6501,K,A*1F
  85519706, $GPGGA,234519.00,3908.5517733,N,09622.0782590,W,1,13,0.86,332.4203,M,-28.2913,M,,*6E
  85519706, $GNGSA,M,3,27,14,10,24,21,18,08,32,,,,,1.59,0.86,1.33*16
  85519706, $GNGSA,M,3,71,73,65,72,87,,,,,,,,1.59,0.86,1.33*19
  85519706, $GPZDA,234519.00,30,08,2019,00,00*6F
  85519706, $GNVTG,154.489,T,,M,2.5411,N,4.7062,K,A*12
  85520705, $GPGGA,234520.00,3908.5511073,N,09622.0777069,W,1,13,0.86,332.2475,M,-28.2913,M,,*69
  85520705, $GNGSA,M,3,27,14,10,24,21,18,08,32,,,,,1.59,0.86,1.33*16
  85520705, $GNGSA,M,3,71,73,65,72,87,,,,,,,,1.59,0.86,1.33*19
  85520705, $GPZDA,234520.00,30,08,2019,00,00*65
  85520705, $GNVTG,141.741,T,,M,2.6634,N,4.9327,K,A*1B
  85521704, $GPGGA,234521.00,3908.5503792,N,09622.0772944,W,1,13,0.86,331.6964,M,-28.2913,M,,*6A
  85521704, $GNGSA,M,3,27,14,10,24,21,18,08,32,,,,,1.59,0.86,1.33*16
  85521704, $GNGSA,M,3,71,73,65,72,87,,,,,,,,1.59,0.86,1.33*19
  85521704, $GPZDA,234521.00,30,08,2019,00,00*64
  85521704, $GNVTG,136.111,T,,M,2.2810,N,4.2243,K,A*1C
  85522704, $GPGGA,234522.00,3908.5497194,N,09622.0767607,W,1,13,0.86,331.3384,M,-28.2913,M,,*68
  85522704, $GNGSA,M,3,27,14,10,24,21,18,08,32,,,,,1.59,0.86,1.33*16
  85522704, $GNGSA,M,3,71,73,65,72,87,,,,,,,,1.59,0.86,1.33*19
  85522704, $GPZDA,234522.00,30,08,2019,00,00*67
  85522704, $GNVTG,146.420,T,,M,2.5469,N,4.7168,K,A*16
  85523705, $GPGGA,234523.00,3908.5491062,N,09622.0761986,W,1,13,0.86,331.1739,M,-28.2913,M,,*67
  85523705, $GNGSA,M,3,27,14,10,24,21,18,08,32,,,,,1.59,0.86,1.33*16
  85523705, $GNGSA,M,3,71,73,65,72,87,,,,,,,,1.59,0.86,1.33*19
  85523705, $GPZDA,234523.00,30,08,2019,00,00*66
  85523705, $GNVTG,149.709,T,,M,2.4891,N,4.6098,K,A*14
  85524705, $GPGGA,234524.00,3908.5485150,N,09622.0757103,W,1,13,0.86,331.0816,M,-28.2913,M,,*66
  85524705, $GNGSA,M,3,27,14,10,24,21,18,08,32,,,,,1.59,0.86,1.33*16
  85524705, $GNGSA,M,3,71,73,65,72,87,,,,,,,,1.59,0.86,1.33*19
  85524705, $GPZDA,234524.00,30,08,2019,00,00*61
  85524705, $GNVTG,152.468,T,,M,2.4019,N,4.4483,K,A*1E
  85525705, $GPGGA,234525.00,3908.5479328,N,09622.0751866,W,1,13,0.86,330.8739,M,-28.2913,M,,*6E
  85525705, $GNGSA,M,3,27,14,10,24,21,18,08,32,,,,,1.59,0.86,1.33*16
  85525705, $GNGSA,M,3,71,73,65,72,87,,,,,,,,1.59,0.86,1.33*19
  85525705, $GPZDA,234525.00,30,08,2019,00,00*60
  85525705, $GNVTG,150.486,T,,M,2.3533,N,4.3584,K,A*17
  85526706, $GPGGA,234526.00,3908.5473607,N,09622.0747170,W,1,13,0.86,330.9290,M,-28.2913,M,,*61
  85526706, $GNGSA,M,3,27,14,10,24,21,18,08,32,,,,,1.58,0.86,1.33*17
  85526706, $GNGSA,M,3,71,73,65,72,87,,,,,,,,1.58,0.86,1.33*18
  85526706, $GPZDA,234526.00,30,08,2019,00,00*63
  85526706, $GNVTG,151.200,T,,M,2.2559,N,4.1780,K,A*17
  85527705, $GPGGA,234527.00,3908.5469058,N,09622.0744444,W,1,13,0.86,331.0825,M,-28.2913,M,,*6A
  85527705, $GNGSA,M,3,27,14,10,24,21,18,08,32,,,,,1.58,0.86,1.33*17
  85527705, $GNGSA,M,3,71,73,65,72,87,,,,,,,,1.58,0.86,1.33*18
  85527705, $GPZDA,234527.00,30,08,2019,00,00*62
  85527705, $GNVTG,142.853,T,,M,2.1329,N,3.9502,K,A*1C
  85528705, $GPGGA,234528.00,3908.5463427,N,09622.0745261,W,1,13,0.86,331.2685,M,-28.2913,M,,*65
  85528705, $GNGSA,M,3,27,14,10,24,21,18,08,32,,,,,1.58,0.86,1.33*17
  85528705, $GNGSA,M,3,71,73,65,72,87,,,,,,,,1.58,0.86,1.33*18
  85528705, $GPZDA,234528.00,30,08,2019,00,00*6D
  85528705, $GNVTG,182.428,T,,M,2.4036,N,4.4515,K,A*14
  85529704, $GPGGA,234529.00,3908.5460066,N,09622.0748537,W,1,10,1.45,331.5269,M,-28.2913,M,,*63
  85529704, $GNGSA,M,3,14,10,24,08,32,,,,,,,,2.18,1.45,1.63*14
  85529704, $GNGSA,M,3,71,73,65,72,87,,,,,,,,2.18,1.45,1.63*14
  85529704, $GPZDA,234529.00,30,08,2019,00,00*6C
  85529704, $GNVTG,286.673,T,,M,1.3680,N,2.5335,K,A*13
  85530704, $GPGGA,234530.00,3908.5459245,N,09622.0748570,W,1,09,1.61,332.6345,M,-28.2913,M,,*60
  85530704, $GNGSA,M,3,27,14,10,24,18,08,32,,,,,,2.52,1.61,1.93*1F
  85530704, $GNGSA,M,3,65,72,,,,,,,,,,,2.52,1.61,1.93*1E
  85530704, $GPZDA,234530.00,30,08,2019,00,00*64
  85530704, $GNVTG,244.769,T,,M,0.5165,N,0.9565,K,A*11
  85531705, $GPGGA,234531.00,3908.5458526,N,09622.0744823,W,1,13,1.11,332.0245,M,-28.2913,M,,*6E
  85531705, $GNGSA,M,3,27,20,14,10,24,18,08,32,,,,,1.83,1.11,1.45*1E
  85531705, $GNGSA,M,3,73,88,65,72,87,,,,,,,,1.83,1.11,1.45*16
  85531705, $GPZDA,234531.00,30,08,2019,00,00*65
  85531705, $GNVTG,328.574,T,,M,1.8435,N,3.4141,K,A*14
  85532705, $GPGGA,234532.00,3908.5455909,N,09622.0745652,W,1,14,0.75,330.4807,M,-28.2913,M,,*66
  85532705, $GNGSA,M,3,27,31,20,14,10,24,18,08,32,,,,1.31,0.75,1.08*1F
  85532705, $GNGSA,M,3,73,86,88,72,87,,,,,,,,1.31,0.75,1.08*18
  85532705, $GPZDA,234532.00,30,08,2019,00,00*66
  85532705, $GNVTG,334.740,T,,M,2.4249,N,4.4908,K,A*1C
  85533705, $GPGGA,234533.00,3908.5462281,N,09622.0751905,W,1,15,0.71,330.9033,M,-28.2913,M,,*67
  85533705, $GNGSA,M,3,31,20,14,10,24,21,18,08,32,,,,1.29,0.71,1.08*14
  85533705, $GNGSA,M,3,73,86,88,65,72,87,,,,,,,1.29,0.71,1.08*16
  85533705, $GPZDA,234533.00,30,08,2019,00,00*67
  85533705, $GNVTG,321.104,T,,M,2.2330,N,4.1355,K,A*10
  85534705, $GPGGA,234534.00,3908.5470540,N,09622.0758147,W,1,14,0.77,329.7836,M,-28.2913,M,,*62
  85534705, $GNGSA,M,3,27,31,20,14,10,24,21,08,32,,,,1.43,0.77,1.20*18
  85534705, $GNGSA,M,3,73,86,88,72,87,,,,,,,,1.43,0.77,1.20*15
  85534705, $GPZDA,234534.00,30,08,2019,00,00*60
  85534705, $GNVTG,305.818,T,,M,2.4718,N,4.5778,K,A*15
  85535705, $GPGGA,234535.00,3908.5475066,N,09622.0763421,W,1,15,0.76,329.7542,M,-28.2913,M,,*64
  85535705, $GNGSA,M,3,27,31,20,14,10,24,21,08,32,,,,1.42,0.76,1.20*18
  85535705, $GNGSA,M,3,73,86,88,65,72,87,,,,,,,1.42,0.76,1.20*16
  85535705, $GPZDA,234535.00,30,08,2019,00,00*61
  85535705, $GNVTG,310.113,T,,M,2.3434,N,4.3400,K,A*13
  85536705, $GPGGA,234536.00,3908.5480419,N,09622.0768932,W,1,15,0.76,330.0232,M,-28.2913,M,,*6A
  85536705, $GNGSA,M,3,27,31,20,14,10,24,21,08,32,,,,1.42,0.76,1.20*18
  85536705, $GNGSA,M,3,73,86,88,65,72,87,,,,,,,1.42,0.76,1.20*16
  85536705, $GPZDA,234536.00,30,08,2019,00,00*62
  85536705, $GNVTG,308.825,T,,M,2.2398,N,4.1481,K,A*1D
  85537705, $GPGGA,234537.00,3908.5485798,N,09622.0774575,W,1,15,0.76,329.9410,M,-28.2913,M,,*61
  85537705, $GNGSA,M,3,27,31,20,14,10,24,21,08,32,,,,1.42,0.76,1.20*18
  85537705, $GNGSA,M,3,73,86,88,65,72,87,,,,,,,1.42,0.76,1.20*16
  85537705, $GPZDA,234537.00,30,08,2019,00,00*63
  85537705, $GNVTG,326.706,T,,M,2.5064,N,4.6419,K,A*1E
  85538705, $GPGGA,234538.00,3908.5495823,N,09622.0780294,W,1,14,0.78,328.4693,M,-28.2913,M,,*69
  85538705, $GNGSA,M,3,31,20,14,10,24,21,08,32,,,,,1.46,0.78,1.23*14
  85538705, $GNGSA,M,3,73,86,88,65,72,87,,,,,,,1.46,0.78,1.23*1F
  85538705, $GPZDA,234538.00,30,08,2019,00,00*6C
  85538705, $GNVTG,327.610,T,,M,2.6988,N,4.9983,K,A*10
  85539705, $GPGGA,234539.00,3908.5495194,N,09622.0782154,W,1,13,0.82,327.8496,M,-28.2913,M,,*66
  85539705, $GNGSA,M,3,31,20,14,10,24,08,32,,,,,,1.49,0.82,1.25*1B
  85539705, $GNGSA,M,3,73,86,88,65,72,87,,,,,,,1.49,0.82,1.25*13
  85539705, $GPZDA,234539.00,30,08,2019,00,00*6D
  85539705, $GNVTG,319.373,T,,M,2.3846,N,4.4163,K,A*10
  85540704, $GPGGA,234540.00,3908.5505117,N,09622.0789343,W,1,14,0.78,327.8039,M,-28.2913,M,,*67
  85540704, $GNGSA,M,3,31,20,14,10,24,21,08,32,,,,,1.46,0.78,1.24*13
  85540704, $GNGSA,M,3,73,86,88,65,72,87,,,,,,,1.46,0.78,1.24*18
  85540704, $GPZDA,234540.00,30,08,2019,00,00*63
  85540704, $GNVTG,314.177,T,,M,2.2731,N,4.2098,K,A*16
  85541705, $GPGGA,234541.00,3908.5509384,N,09622.0801014,W,1,13,0.80,330.0082,M,-28.2913,M,,*62
  85541705, $GNGSA,M,3,31,20,14,10,24,21,08,,,,,,1.55,0.80,1.33*11
  85541705, $GNGSA,M,3,73,86,88,65,72,87,,,,,,,1.55,0.80,1.33*1B
  85541705, $GPZDA,234541.00,30,08,2019,00,00*62
  85541705, $GNVTG,311.161,T,,M,2.6822,N,4.9674,K,A*12
  85542705, $GPGGA,234542.00,3908.5509519,N,09622.0804590,W,1,13,0.80,330.0227,M,-28.2912,M,,*63
  85542705, $GNGSA,M,3,31,20,14,10,24,08,,,,,,,1.52,0.80,1.29*1E
  85542705, $GNGSA,M,3,71,73,86,88,65,72,87,,,,,,1.52,0.80,1.29*11
  85542705, $GPZDA,234542.00,30,08,2019,00,00*61
  85542705, $GNVTG,317.418,T,,M,2.6639,N,4.9336,K,A*18
  85543705, $GPGGA,234543.00,3908.5515424,N,09622.0810550,W,1,13,0.80,330.1605,M,-28.2912,M,,*6C
  85543705, $GNGSA,M,3,31,20,14,10,24,08,,,,,,,1.52,0.80,1.29*1E
  85543705, $GNGSA,M,3,71,73,86,88,65,72,87,,,,,,1.52,0.80,1.29*11
  85543705, $GPZDA,234543.00,30,08,2019,00,00*60
  85543705, $GNVTG,324.194,T,,M,2.4453,N,4.5286,K,A*13
  85544704, $GPGGA,234544.00,3908.5524094,N,09622.0810108,W,1,15,0.77,327.6783,M,-28.2912,M,,*6F
  85544704, $GNGSA,M,3,27,31,20,14,10,24,08,32,,,,,1.40,0.77,1.17*1C
  85544704, $GNGSA,M,3,71,73,86,88,65,72,87,,,,,,1.40,0.77,1.17*17
  85544704, $GPZDA,234544.00,30,08,2019,00,00*67
  85544704, $GNVTG,332.921,T,,M,2.9507,N,5.4646,K,A*17
  85545705, $GPGGA,234545.00,3908.5530132,N,09622.0814846,W,1,15,0.77,327.6164,M,-28.2912,M,,*6E
  85545705, $GNGSA,M,3,27,31,20,14,10,24,08,32,,,,,1.40,0.77,1.17*1C
  85545705, $GNGSA,M,3,71,73,86,88,65,72,87,,,,,,1.40,0.77,1.17*17
  85545705, $GPZDA,234545.00,30,08,2019,00,00*66
  85545705, $GNVTG,329.428,T,,M,2.5468,N,4.7167,K,A*1B
  85546706, $GPGGA,234546.00,3908.5536589,N,09622.0820300,W,1,15,0.77,327.7217,M,-28.2912,M,,*67
  85546706, $GNGSA,M,3,27,31,20,14,10,24,08,32,,,,,1.40,0.77,1.17*1C
  85546706, $GNGSA,M,3,71,73,86,88,65,72,87,,,,,,1.40,0.77,1.17*17
  85546706, $GPZDA,234546.00,30,08,2019,00,00*65
  85546706, $GNVTG,319.670,T,,M,2.5957,N,4.8073,K,A*1D
  85547705, $GPGGA,234547.00,3908.5541775,N,09622.0827108,W,1,15,0.77,327.9354,M,-28.2912,M,,*62
  85547705, $GNGSA,M,3,27,31,20,14,10,24,08,32,,,,,1.40,0.77,1.17*1C
  85547705, $GNGSA,M,3,71,73,86,88,65,72,87,,,,,,1.40,0.77,1.17*17
  85547705, $GPZDA,234547.00,30,08,2019,00,00*64
  85547705, $GNVTG,304.920,T,,M,2.6944,N,4.9900,K,A*16
  85548704, $GPGGA,234548.00,3908.5547063,N,09622.0833044,W,1,15,0.77,328.0337,M,-28.2912,M,,*64
  85548704, $GNGSA,M,3,27,31,20,14,10,24,08,32,,,,,1.40,0.77,1.17*1C
  85548704, $GNGSA,M,3,71,73,86,88,65,72,87,,,,,,1.40,0.77,1.17*17
  85548704, $GPZDA,234548.00,30,08,2019,00,00*6B
  85548704, $GNVTG,315.330,T,,M,2.3916,N,4.4293,K,A*13
  85549704, $GPGGA,234549.00,3908.5550412,N,09622.0846424,W,1,14,0.78,330.5081,M,-28.2912,M,,*6D
  85549704, $GNGSA,M,3,27,31,20,14,10,24,08,,,,,,1.49,0.78,1.27*18
  85549704, $GNGSA,M,3,71,73,86,88,65,72,87,,,,,,1.49,0.78,1.27*12
  85549704, $GPZDA,234549.00,30,08,2019,00,00*6A
  85549704, $GNVTG,323.033,T,,M,2.5026,N,4.6347,K,A*10
  85550705, $GPGGA,234550.00,3908.5558655,N,09622.0847545,W,1,15,0.77,328.4123,M,-28.2912,M,,*64
  85550705, $GNGSA,M,3,27,31,20,14,10,24,08,32,,,,,1.40,0.77,1.17*1C
  85550705, $GNGSA,M,3,71,73,86,88,65,72,87,,,,,,1.40,0.77,1.17*17
  85550705, $GPZDA,234550.00,30,08,2019,00,00*62
  85550705, $GNVTG,328.977,T,,M,2.7712,N,5.1323,K,A*14
  85551704, $GPGGA,234551.00,3908.5563645,N,09622.0854259,W,1,15,0.77,328.9794,M,-28.2912,M,,*63
  85551704, $GNGSA,M,3,27,31,20,14,10,24,08,32,,,,,1.40,0.77,1.17*1C
  85551704, $GNGSA,M,3,71,73,86,88,65,72,87,,,,,,1.40,0.77,1.17*17
  85551704, $GPZDA,234551.00,30,08,2019,00,00*63
  85551704, $GNVTG,326.159,T,,M,2.4497,N,4.5368,K,A*19
  85552705, $GPGGA,234552.00,3908.5567672,N,09622.0864789,W,1,14,0.78,330.7101,M,-28.2911,M,,*6B
  85552705, $GNGSA,M,3,27,31,20,14,10,24,08,,,,,,1.49,0.78,1.27*18
  85552705, $GNGSA,M,3,71,73,86,88,65,72,87,,,,,,1.49,0.78,1.27*12
  85552705, $GPZDA,234552.00,30,08,2019,00,00*60
  85552705, $GNVTG,311.342,T,,M,2.4220,N,4.4856,K,A*18
  85553706, $GPGGA,234553.00,3908.5574810,N,09622.0866619,W,1,15,0.77,329.1077,M,-28.2911,M,,*68
  85553706, $GNGSA,M,3,27,31,20,14,10,24,08,32,,,,,1.40,0.77,1.17*1C
  85553706, $GNGSA,M,3,71,73,86,88,65,72,87,,,,,,1.40,0.77,1.17*17
  85553706, $GPZDA,234553.00,30,08,2019,00,00*61
  85553706, $GNVTG,313.604,T,,M,3.0302,N,5.6120,K,A*12
  85554704, $GPGGA,234554.00,3908.5580678,N,09622.0871152,W,1,15,0.77,329.1415,M,-28.2911,M,,*6A
  85554704, $GNGSA,M,3,27,31,20,14,10,24,08,32,,,,,1.40,0.77,1.17*1C
  85554704, $GNGSA,M,3,71,73,86,88,65,72,87,,,,,,1.40,0.77,1.17*17
  85554704, $GPZDA,234554.00,30,08,2019,00,00*66
  85554704, $GNVTG,316.594,T,,M,2.7273,N,5.0509,K,A*15
  85555705, $GPGGA,234555.00,3908.5586460,N,09622.0876931,W,1,15,0.77,328.9947,M,-28.2911,M,,*6F
  85555705, $GNGSA,M,3,27,31,20,14,10,24,08,32,,,,,1.40,0.77,1.17*1C
  85555705, $GNGSA,M,3,71,73,86,88,65,72,87,,,,,,1.40,0.77,1.17*17
  85555705, $GPZDA,234555.00,30,08,2019,00,00*67
  85555705, $GNVTG,321.904,T,,M,2.0863,N,3.8638,K,A*17
  85556705, $GPGGA,234556.00,3908.5591645,N,09622.0881889,W,1,13,0.81,329.0127,M,-28.2911,M,,*6C
  85556705, $GNGSA,M,3,31,20,14,10,24,08,32,,,,,,1.45,0.81,1.21*10
  85556705, $GNGSA,M,3,71,73,86,88,72,87,,,,,,,1.45,0.81,1.21*1D
  85556705, $GPZDA,234556.00,30,08,2019,00,00*64
  85556705, $GNVTG,340.168,T,,M,2.3126,N,4.2830,K,A*12
  85557705, $GPGGA,234557.00,3908.5593977,N,09622.0885665,W,1,14,0.72,330.2065,M,-28.2911,M,,*6F
  85557705, $GNGSA,M,3,31,20,14,10,24,18,08,32,,,,,1.28,0.72,1.05*18
  85557705, $GNGSA,M,3,71,73,86,88,72,87,,,,,,,1.28,0.72,1.05*1C
  85557705, $GPZDA,234557.00,30,08,2019,00,00*65
  85557705, $GNVTG,330.043,T,,M,1.5733,N,2.9138,K,A*16
  85558704, $GPGGA,234558.00,3908.5600872,N,09622.0889046,W,1,14,0.76,330.7561,M,-28.2911,M,,*66
  85558704, $GNGSA,M,3,31,20,14,10,24,21,08,32,,,,,1.41,0.76,1.19*14
  85558704, $GNGSA,M,3,71,73,86,88,72,87,,,,,,,1.41,0.76,1.19*1A
  85558704, $GPZDA,234558.00,30,08,2019,00,00*6A
  85558704, $GNVTG,310.710,T,,M,0.7521,N,1.3929,K,A*16
  85559706, $GPGGA,234559.00,3908.5604680,N,09622.0891135,W,1,15,0.68,330.5001,M,-28.2911,M,,*63
  85559706, $GNGSA,M,3,31,20,14,10,24,21,18,08,32,,,,1.25,0.68,1.05*1D
  85559706, $GNGSA,M,3,71,73,86,88,72,87,,,,,,,1.25,0.68,1.05*1A
  85559706, $GPZDA,234559.00,30,08,2019,00,00*6B
  85559706, $GNVTG,055.344,T,,M,0.9912,N,1.8357,K,A*1B
  85560705, $GPGGA,234600.00,3908.5603157,N,09622.0890674,W,1,12,0.87,330.7107,M,-28.2911,M,,*66
  85560705, $GNGSA,M,3,20,14,10,24,21,18,08,32,,,,,1.55,0.87,1.29*17
  85560705, $GNGSA,M,3,86,88,72,87,,,,,,,,,1.55,0.87,1.29*10
  85560705, $GPZDA,234600.00,30,08,2019,00,00*64
  85560705, $GNVTG,265.178,T,,M,0.6911,N,1.2799,K,A*17
  85561704, $GPGGA,234601.00,3908.5602698,N,09622.0893335,W,1,14,0.82,330.9393,M,-28.2911,M,,*63
  85561704, $GNGSA,M,3,31,20,14,10,24,21,18,08,32,,,,1.41,0.82,1.15*1A
  85561704, $GNGSA,M,3,86,88,65,72,87,,,,,,,,1.41,0.82,1.15*1C
  85561704, $GPZDA,234601.00,30,08,2019,00,00*65
  85561704, $GNVTG,038.258,T,,M,0.3187,N,0.5903,K,A*15
  85562705, $GPGGA,234602.00,3908.5604361,N,09622.0892072,W,1,13,0.88,330.4160,M,-28.2911,M,,*6A
  85562705, $GNGSA,M,3,31,20,14,10,24,21,18,08,32,,,,1.52,0.88,1.24*10
  85562705, $GNGSA,M,3,88,65,72,87,,,,,,,,,1.52,0.88,1.24*18
  85562705, $GPZDA,234602.00,30,08,2019,00,00*66
  85562705, $GNVTG,001.949,T,,M,0.1528,N,0.2829,K,A*19
  85563704, $GPGGA,234603.00,3908.5603241,N,09622.0892472,W,1,12,1.02,330.5762,M,-28.2911,M,,*6C
  85563704, $GNGSA,M,3,20,14,10,24,21,18,08,32,,,,,1.93,1.02,1.63*1F
  85563704, $GNGSA,M,3,88,65,72,87,,,,,,,,,1.93,1.02,1.63*15
  85563704, $GPZDA,234603.00,30,08,2019,00,00*67
  85563704, $GNVTG,173.373,T,,M,1.5827,N,2.9311,K,A*10
  85564705, $GPGGA,234604.00,3908.5598128,N,09622.0889736,W,1,11,1.03,330.8636,M,-28.2911,M,,*60
  85564705, $GNGSA,M,3,20,14,10,24,21,18,08,32,,,,,1.94,1.03,1.65*1F
  85564705, $GNGSA,M,3,65,72,87,,,,,,,,,,1.94,1.03,1.65*15
  85564705, $GPZDA,234604.00,30,08,2019,00,00*60
  85564705, $GNVTG,140.406,T,,M,2.2872,N,4.2358,K,A*11
  85565704, $GPGGA,234605.00,3908.5593220,N,09622.0885295,W,1,13,0.88,331.2732,M,-28.2911,M,,*6F
  85565704, $GNGSA,M,3,27,20,14,10,24,21,18,08,32,,,,1.61,0.88,1.34*16
  85565704, $GNGSA,M,3,73,65,72,87,,,,,,,,,1.61,0.88,1.34*1D
  85565704, $GPZDA,234605.00,30,08,2019,00,00*61
  85565704, $GNVTG,133.583,T,,M,2.2883,N,4.2379,K,A*14
  85566704, $GPGGA,234606.00,3908.5587679,N,09622.0880486,W,1,13,0.88,331.4903,M,-28.2911,M,,*6A
  85566704, $GNGSA,M,3,27,20,14,10,24,21,18,08,32,,,,1.61,0.88,1.34*16
  85566704, $GNGSA,M,3,73,65,72,87,,,,,,,,,1.61,0.88,1.34*1D
  85566704, $GPZDA,234606.00,30,08,2019,00,00*62
  85566704, $GNVTG,132.098,T,,M,2.5353,N,4.6954,K,A*1A
  85567705, $GPGGA,234607.00,3908.5581933,N,09622.0874998,W,1,14,0.85,331.5599,M,-28.2911,M,,*61
  85567705, $GNGSA,M,3,27,20,14,10,24,21,18,08,32,,,,1.52,0.85,1.26*18
  85567705, $GNGSA,M,3,73,65,71,72,87,,,,,,,,1.52,0.85,1.26*15
  85567705, $GPZDA,234607.00,30,08,2019,00,00*63
  85567705, $GNVTG,140.901,T,,M,2.3741,N,4.3968,K,A*1D
  85568704, $GPGGA,234608.00,3908.5575739,N,09622.0870276,W,1,13,0.88,331.5311,M,-28.2911,M,,*62
  85568704, $GNGSA,M,3,20,14,10,24,21,18,08,32,,,,,1.61,0.88,1.34*13
  85568704, $GNGSA,M,3,73,65,71,72,87,,,,,,,,1.61,0.88,1.34*1B
  85568704, $GPZDA,234608.00,30,08,2019,00,00*6C
  85568704, $GNVTG,149.638,T,,M,3.0926,N,5.7274,K,A*1F
  85569705, $GPGGA,234609.00,3908.5569109,N,09622.0866242,W,1,14,0.85,331.4754,M,-28.2911,M,,*65
  85569705, $GNGSA,M,3,27,20,14,10,24,21,18,08,32,,,,1.52,0.85,1.26*18
  85569705, $GNGSA,M,3,73,65,71,72,87,,,,,,,,1.52,0.85,1.26*15
  85569705, $GPZDA,234609.00,30,08,2019,00,00*6D
  85569705, $GNVTG,148.899,T,,M,2.6219,N,4.8558,K,A*1C
  85570704, $GPGGA,234610.00,3908.5563327,N,09622.0860796,W,1,14,0.85,331.5472,M,-28.2911,M,,*65
  85570704, $GNGSA,M,3,27,20,14,10,24,21,18,08,32,,,,1.52,0.85,1.26*18
  85570704, $GNGSA,M,3,73,65,71,72,87,,,,,,,,1.52,0.85,1.26*15
  85570704, $GPZDA,234610.00,30,08,2019,00,00*65
  85570704, $GNVTG,141.619,T,,M,2.7054,N,5.0104,K,A*1D
  85571704, $GPGGA,234611.00,3908.5557839,N,09622.0855144,W,1,14,0.85,331.7801,M,-28.2911,M,,*62
  85571704, $GNGSA,M,3,27,20,14,10,24,21,18,08,32,,,,1.52,0.85,1.26*18
  85571704, $GNGSA,M,3,73,65,71,72,87,,,,,,,,1.52,0.85,1.26*15
  85571704, $GPZDA,234611.00,30,08,2019,00,00*64
  85571704, $GNVTG,142.306,T,,M,2.7406,N,5.0756,K,A*17
  85572705, $GPGGA,234612.00,3908.5551824,N,09622.0849940,W,1,14,0.85,331.8597,M,-28.2911,M,,*67
  85572705, $GNGSA,M,3,27,20,14,10,24,21,18,08,32,,,,1.52,0.85,1.26*18
  85572705, $GNGSA,M,3,73,65,71,72,87,,,,,,,,1.52,0.85,1.26*15
  85572705, $GPZDA,234612.00,30,08,2019,00,00*67
  85572705, $GNVTG,134.375,T,,M,2.8180,N,5.2190,K,A*18
  85573705, $GPGGA,234613.00,3908.5546373,N,09622.0844243,W,1,14,0.85,331.9466,M,-28.2911,M,,*62
  85573705, $GNGSA,M,3,27,20,14,10,24,21,18,08,32,,,,1.52,0.85,1.26*18
  85573705, $GNGSA,M,3,73,65,71,72,87,,,,,,,,1.52,0.85,1.26*15
  85573705, $GPZDA,234613.00,30,08,2019,00,00*66
  85573705, $GNVTG,125.008,T,,M,2.7557,N,5.1035,K,A*1D
  85574704, $GPGGA,234614.00,3908.5540848,N,09622.0837795,W,1,14,0.85,331.9787,M,-28.2911,M,,*66
  85574704, $GNGSA,M,3,27,20,14,10,24,21,18,08,32,,,,1.52,0.85,1.26*18
  85574704, $GNGSA,M,3,73,65,71,72,87,,,,,,,,1.52,0.85,1.26*15
  85574704, $GPZDA,234614.00,30,08,2019,00,00*61
  85574704, $GNVTG,137.956,T,,M,2.5901,N,4.7968,K,A*17
  85575704, $GPGGA,234615.00,3908.5534871,N,09622.0831865,W,1,14,0.85,332.0838,M,-28.2911,M,,*69
  85575704, $GNGSA,M,3,27,20,14,10,24,21,18,08,32,,,,1.52,0.85,1.26*18
  85575704, $GNGSA,M,3,73,65,71,72,87,,,,,,,,1.52,0.85,1.26*15
  85575704, $GPZDA,234615.00,30,08,2019,00,00*60
  85575704, $GNVTG,150.658,T,,M,2.8190,N,5.2208,K,A*13
  85576704, $GPGGA,234616.00,3908.5528625,N,09622.0826082,W,1,14,0.85,332.1484,M,-28.2911,M,,*65
  85576704, $GNGSA,M,3,27,20,14,10,24,21,18,08,32,,,,1.52,0.85,1.26*18
  85576704, $GNGSA,M,3,73,65,71,72,87,,,,,,,,1.52,0.85,1.26*15
  85576704, $GPZDA,234616.00,30,08,2019,00,00*63
  85576704, $GNVTG,148.974,T,,M,2.8732,N,5.3212,K,A*1F
  85577704, $GPGGA,234617.00,3908.5522419,N,09622.0820581,W,1,14,0.85,332.1394,M,-28.2912,M,,*66
  85577704, $GNGSA,M,3,27,20,14,10,24,21,18,08,32,,,,1.52,0.85,1.26*18
  85577704, $GNGSA,M,3,73,65,71,72,87,,,,,,,,1.52,0.85,1.26*15
  85577704, $GPZDA,234617.00,30,08,2019,00,00*62
  85577704, $GNVTG,144.468,T,,M,2.4511,N,4.5394,K,A*14
  85578704, $GPGGA,234618.00,3908.5516506,N,09622.0814888,W,1,14,0.85,332.0497,M,-28.2912,M,,*67
  85578704, $GNGSA,M,3,27,20,14,10,24,21,18,08,32,,,,1.52,0.85,1.26*18
  85578704, $GNGSA,M,3,73,65,71,72,87,,,,,,,,1.52,0.85,1.26*15
  85578704, $GPZDA,234618.00,30,08,2019,00,00*6D
  85578704, $GNVTG,141.081,T,,M,2.5951,N,4.8061,K,A*1F
  85579705, $GPGGA,234619.00,3908.5510932,N,09622.0808383,W,1,14,0.85,331.9639,M,-28.2912,M,,*6A
  85579705, $GNGSA,M,3,27,20,14,10,24,21,18,08,32,,,,1.52,0.85,1.26*18
  85579705, $GNGSA,M,3,73,65,71,72,87,,,,,,,,1.52,0.85,1.26*15
  85579705, $GPZDA,234619.00,30,08,2019,00,00*6C
  85579705, $GNVTG,129.028,T,,M,2.8049,N,5.1947,K,A*1A
  85580705, $GPGGA,234620.00,3908.5505181,N,09622.0801891,W,1,14,0.85,331.7883,M,-28.2912,M,,*64
  85580705, $GNGSA,M,3,27,20,14,10,24,21,18,08,32,,,,1.52,0.85,1.26*18
  85580705, $GNGSA,M,3,73,65,71,72,87,,,,,,,,1.52,0.85,1.26*15
  85580705, $GPZDA,234620.00,30,08,2019,00,00*66
  85580705, $GNVTG,125.933,T,,M,2.6226,N,4.8571,K,A*11
  85581705, $GPGGA,234621.00,3908.5499392,N,09622.0795325,W,1,13,0.88,331.8679,M,-28.2912,M,,*69
  85581705, $GNGSA,M,3,27,20,14,10,24,21,18,08,32,,,,1.62,0.88,1.36*17
  85581705, $GNGSA,M,3,73,65,71,87,,,,,,,,,1.62,0.88,1.36*1F
  85581705, $GPZDA,234621.00,30,08,2019,00,00*67
  85581705, $GNVTG,140.662,T,,M,2.5386,N,4.7014,K,A*18
  85582704, $GPGGA,234622.00,3908.5493985,N,09622.0788238,W,1,14,0.85,331.7790,M,-28.2912,M,,*6E
  85582704, $GNGSA,M,3,27,20,14,10,24,21,18,08,32,,,,1.52,0.85,1.26*18
  85582704, $GNGSA,M,3,73,65,71,72,87,,,,,,,,1.52,0.85,1.26*15
  85582704, $GPZDA,234622.00,30,08,2019,00,00*64
  85582704, $GNVTG,139.606,T,,M,2.8244,N,5.2308,K,A*1C
  85583704, $GPGGA,234623.00,3908.5489015,N,09622.0781163,W,1,14,0.85,331.8084,M,-28.2912,M,,*6D
  85583704, $GNGSA,M,3,27,20,14,10,24,21,18,08,32,,,,1.52,0.85,1.26*18
  85583704, $GNGSA,M,3,73,65,71,72,87,,,,,,,,1.52,0.85,1.26*15
  85583704, $GPZDA,234623.00,30,08,2019,00,00*65
  85583704, $GNVTG,141.431,T,,M,2.6293,N,4.8695,K,A*1B
  85584705, $GPGGA,234624.00,3908.5483445,N,09622.0774609,W,1,14,0.85,331.9056,M,-28.2912,M,,*6E
  85584705, $GNGSA,M,3,27,20,14,10,24,21,18,08,32,,,,1.52,0.85,1.26*18
  85584705, $GNGSA,M,3,73,65,71,72,87,,,,,,,,1.52,0.85,1.26*15
  85584705, $GPZDA,234624.00,30,08,2019,00,00*62
  85584705, $GNVTG,140.465,T,,M,2.4738,N,4.5814,K,A*17
  85585704, $GPGGA,234625.00,3908.5477814,N,09622.0768369,W,1,14,0.85,331.9605,M,-28.2912,M,,*62
  85585704, $GNGSA,M,3,27,20,14,10,24,21,18,08,32,,,,1.52,0.85,1.26*18
  85585704, $GNGSA,M,3,73,65,71,72,87,,,,,,,,1.52,0.85,1.26*15
  85585704, $GPZDA,234625.00,30,08,2019,00,00*63
  85585704, $GNVTG,137.137,T,,M,2.8436,N,5.2663,K,A*1C
  85586704, $GPGGA,234626.00,3908.5472582,N,09622.0762204,W,1,14,0.85,331.9539,M,-28.2912,M,,*6A
  85586704, $GNGSA,M,3,27,20,14,10,24,21,18,08,32,,,,1.52,0.85,1.26*18
  85586704, $GNGSA,M,3,73,65,71,72,87,,,,,,,,1.52,0.85,1.26*15
  85586704, $GPZDA,234626.00,30,08,2019,00,00*60
  85586704, $GNVTG,134.041,T,,M,2.5643,N,4.7492,K,A*1A
  85587705, $GPGGA,234627.00,3908.5468000,N,09622.0756663,W,1,14,0.85,331.9661,M,-28.2913,M,,*62
  85587705, $GNGSA,M,3,27,20,14,10,24,21,18,08,32,,,,1.52,0.85,1.26*18
  85587705, $GNGSA,M,3,73,65,71,72,87,,,,,,,,1.52,0.85,1.26*15
  85587705, $GPZDA,234627.00,30,08,2019,00,00*61
  85587705, $GNVTG,117.539,T,,M,2.1622,N,4.0044,K,A*1A
  85588704, $GPGGA,234628.00,3908.5463429,N,09622.0752129,W,1,14,0.85,331.8499,M,-28.2913,M,,*60
  85588704, $GNGSA,M,3,27,20,14,10,24,21,18,08,32,,,,1.52,0.85,1.26*18
  85588704, $GNGSA,M,3,73,65,71,72,87,,,,,,,,1.52,0.85,1.26*15
  85588704, $GPZDA,234628.00,30,08,2019,00,00*6E
  85588704, $GNVTG,155.540,T,,M,1.9708,N,3.6500,K,A*14
  85589704, $GPGGA,234629.00,3908.5457342,N,09622.0752685,W,1,12,1.01,331.4241,M,-28.2913,M,,*69
  85589704, $GNGSA,M,3,27,20,14,10,21,08,32,,,,,,1.69,1.01,1.36*13
  85589704, $GNGSA,M,3,73,65,71,72,87,,,,,,,,1.69,1.01,1.36*11
  85589704, $GPZDA,234629.00,30,08,2019,00,00*6F
  85589704, $GNVTG,199.238,T,,M,1.5326,N,2.8383,K,A*1A
  85590704, $GPGGA,234630.00,3908.5455199,N,09622.0751681,W,1,13,0.88,331.1062,M,-28.2913,M,,*67
  85590704, $GNGSA,M,3,20,14,10,24,21,18,08,32,,,,,1.61,0.88,1.34*13
  85590704, $GNGSA,M,3,73,65,71,72,87,,,,,,,,1.61,0.88,1.34*1B
  85590704, $GPZDA,234630.00,30,08,2019,00,00*67
  85590704, $GNVTG,191.154,T,,M,1.5107,N,2.7978,K,A*1B
  85591705, $GPGGA,234631.00,3908.5452645,N,09622.0751512,W,1,12,0.81,332.0193,M,-28.2913,M,,*6B
  85591705, $GNGSA,M,3,31,14,10,24,21,18,32,,,,,,1.48,0.81,1.23*1F
  85591705, $GNGSA,M,3,73,65,71,72,87,,,,,,,,1.48,0.81,1.23*1F
  85591705, $GPZDA,234631.00,30,08,2019,00,00*66
  85591705, $GNVTG,260.857,T,,M,0.5999,N,1.1111,K,A*10
  85592704, $GPGGA,234632.00,3908.5452093,N,09622.0753501,W,1,11,0.85,331.6305,M,-28.2913,M,,*6A
  85592704, $GNGSA,M,3,31,14,10,24,21,18,32,,,,,,1.51,0.85,1.25*15
  85592704, $GNGSA,M,3,65,71,72,87,,,,,,,,,1.51,0.85,1.25*11
  85592704, $GPZDA,234632.00,30,08,2019,00,00*65
  85592704, $GNVTG,252.283,T,,M,0.3168,N,0.5868,K,A*10
  85593703, $GPGGA,234633.00,3908.5449459,N,09622.0754569,W,1,10,0.98,330.5347,M,-28.2913,M,,*63
  85593703, $GNGSA,M,3,31,14,10,24,21,18,32,,,,,,1.66,0.98,1.34*1D
  85593703, $GNGSA,M,3,65,72,87,,,,,,,,,,1.66,0.98,1.34*1F
  85593703, $GPZDA,234633.00,30,08,2019,00,00*64
  85593703, $GNVTG,317.575,T,,M,1.6621,N,3.0783,K,A*1C
  85594705, $GPGGA,234634.00,3908.5484534,N,09622.0798720,W,1,09,1.41,321.8893,M,-28.2913,M,,*62
  85594705, $GNGSA,M,3,31,10,24,21,32,,,,,,,,2.23,1.41,1.73*15
  85594705, $GNGSA,M,3,88,65,72,87,,,,,,,,,2.23,1.41,1.73*1B
  85594705, $GPZDA,234634.00,30,08,2019,00,00*63
  85594705, $GNVTG,296.547,T,,M,2.4498,N,4.5370,K,A*1E
  85595704, $GPGGA,234635.00,3908.5452677,N,09622.0769410,W,1,09,1.54,329.6362,M,-28.2913,M,,*65
  85595704, $GNGSA,M,3,31,20,10,24,32,,,,,,,,2.28,1.54,1.67*1E
  85595704, $GNGSA,M,3,88,65,72,87,,,,,,,,,2.28,1.54,1.67*11
  85595704, $GPZDA,234635.00,30,08,2019,00,00*62
  85595704, $GNVTG,309.627,T,,M,1.9787,N,3.6646,K,A*1B
  85596705, $GPGGA,234636.00,3908.5478605,N,09622.0779391,W,1,12,1.10,328.3532,M,-28.2913,M,,*69
  85596705, $GNGSA,M,3,31,20,14,10,24,21,32,,,,,,1.95,1.10,1.61*1B
  85596705, $GNGSA,M,3,88,73,65,72,87,,,,,,,,1.95,1.10,1.61*16
  85596705, $GPZDA,234636.00,30,08,2019,00,00*61
  85596705, $GNVTG,313.066,T,,M,2.2648,N,4.1945,K,A*15
  85597704, $GPGGA,234637.00,3908.5476989,N,09622.0782055,W,1,12,1.10,328.9583,M,-28.2913,M,,*62
  85597704, $GNGSA,M,3,31,20,14,10,24,21,32,,,,,,1.95,1.10,1.61*1B
  85597704, $GNGSA,M,3,88,73,65,72,87,,,,,,,,1.95,1.10,1.61*16
  85597704, $GPZDA,234637.00,30,08,2019,00,00*60
  85597704, $GNVTG,314.989,T,,M,2.5761,N,4.7710,K,A*1F
  85598703, $GPGGA,234638.00,3908.5482038,N,09622.0789456,W,1,12,1.23,329.0640,M,-28.2912,M,,*6C
  85598703, $GNGSA,M,3,31,20,14,10,24,21,32,,,,,,2.20,1.23,1.82*1B
  85598703, $GNGSA,M,3,88,73,71,65,72,,,,,,,,2.20,1.23,1.82*1F
  85598703, $GPZDA,234638.00,30,08,2019,00,00*6F
  85598703, $GNVTG,299.067,T,,M,2.1153,N,3.9175,K,A*1D
  85599705, $GPGGA,234639.00,3908.5478970,N,09622.0794766,W,1,13,1.07,329.5583,M,-28.2912,M,,*6F
  85599705, $GNGSA,M,3,31,20,14,10,24,21,32,,,,,,1.91,1.07,1.58*13
  85599705, $GNGSA,M,3,88,73,71,65,72,87,,,,,,,1.91,1.07,1.58*18
  85599705, $GPZDA,234639.00,30,08,2019,00,00*6E
  85599705, $GNVTG,286.108,T,,M,2.5196,N,4.6663,K,A*1E
  85600704, $GPGGA,234640.00,3908.5467613,N,09622.0792753,W,1,12,1.24,331.5963,M,-28.2912,M,,*6E
  85600704, $GNGSA,M,3,31,20,14,10,24,32,,,,,,,2.06,1.24,1.64*13
  85600704, $GNGSA,M,3,88,73,71,65,72,87,,,,,,,2.06,1.24,1.64*1B
  85600704, $GPZDA,234640.00,30,08,2019,00,00*60
  85600704, $GNVTG,296.100,T,,M,2.3294,N,4.3141,K,A*12
  85601704, $GPGGA,234641.00,3908.5470734,N,09622.0799960,W,1,12,1.24,331.8273,M,-28.2912,M,,*6F
  85601704, $GNGSA,M,3,31,20,14,10,24,32,,,,,,,2.06,1.24,1.64*13
  85601704, $GNGSA,M,3,88,73,71,65,72,87,,,,,,,2.06,1.24,1.64*1B
  85601704, $GPZDA,234641.00,30,08,2019,00,00*61
  85601704, $GNVTG,300.414,T,,M,2.4012,N,4.4470,K,A*17
  85602704, $GPGGA,234642.00,3908.5474713,N,09622.0808123,W,1,12,1.24,331.8198,M,-28.2912,M,,*63
  85602704, $GNGSA,M,3,31,20,14,10,24,32,,,,,,,2.06,1.24,1.64*13
  85602704, $GNGSA,M,3,88,73,71,65,72,87,,,,,,,2.06,1.24,1.64*1B
  85602704, $GPZDA,234642.00,30,08,2019,00,00*62
  85602704, $GNVTG,308.556,T,,M,2.8446,N,5.2681,K,A*1A
  85603705, $GPGGA,234643.00,3908.5477522,N,09622.0814960,W,1,12,1.24,331.9085,M,-28.2912,M,,*6F
  85603705, $GNGSA,M,3,31,20,14,10,24,32,,,,,,,2.06,1.24,1.64*13
  85603705, $GNGSA,M,3,88,73,71,65,72,87,,,,,,,2.06,1.24,1.64*1B
  85603705, $GPZDA,234643.00,30,08,2019,00,00*63
  85603705, $GNVTG,304.534,T,,M,2.5581,N,4.7377,K,A*1D
  85604704, $GPGGA,234644.00,3908.5477936,N,09622.0821917,W,1,11,1.54,332.8399,M,-28.2912,M,,*6F
  85604704, $GNGSA,M,3,31,20,14,10,24,32,,,,,,,2.53,1.54,2.01*14
  85604704, $GNGSA,M,3,88,73,71,65,72,,,,,,,,2.53,1.54,2.01*13
  85604704, $GPZDA,234644.00,30,08,2019,00,00*64
  85604704, $GNVTG,300.775,T,,M,2.4787,N,4.5906,K,A*15
  85605704, $GPGGA,234645.00,3908.5484955,N,09622.0829990,W,1,12,1.24,332.1051,M,-28.2912,M,,*6A
  85605704, $GNGSA,M,3,31,20,14,10,24,32,,,,,,,2.06,1.24,1.64*13
  85605704, $GNGSA,M,3,88,73,71,65,72,87,,,,,,,2.06,1.24,1.64*1B
  85605704, $GPZDA,234645.00,30,08,2019,00,00*65
  85605704, $GNVTG,298.133,T,,M,2.6181,N,4.8486,K,A*1B
  85606705, $GPGGA,234646.00,3908.5489462,N,09622.0836448,W,1,12,1.24,331.9824,M,-28.2912,M,,*6A
  85606705, $GNGSA,M,3,31,20,14,10,24,32,,,,,,,2.06,1.24,1.64*13
  85606705, $GNGSA,M,3,88,73,71,65,72,87,,,,,,,2.06,1.24,1.64*1B
  85606705, $GPZDA,234646.00,30,08,2019,00,00*66
  85606705, $GNVTG,311.587,T,,M,2.2760,N,4.2152,K,A*1B
  85607705, $GPGGA,234647.00,3908.5490317,N,09622.0837845,W,1,11,1.55,332.3900,M,-28.2912,M,,*6D
  85607705, $GNGSA,M,3,31,20,14,10,24,32,,,,,,,2.45,1.55,1.90*19
  85607705, $GNGSA,M,3,73,71,65,72,87,,,,,,,,2.45,1.55,1.90*11
  85607705, $GPZDA,234647.00,30,08,2019,00,00*67
  85607705, $GNVTG,317.789,T,,M,2.7600,N,5.1114,K,A*13
  85608704, $GPGGA,234648.00,3908.5500983,N,09622.0847376,W,1,12,1.24,331.2233,M,-28.2911,M,,*6E
  85608704, $GNGSA,M,3,31,20,14,10,24,32,,,,,,,2.06,1.24,1.64*13
  85608704, $GNGSA,M,3,88,73,71,65,72,87,,,,,,,2.06,1.24,1.64*1B
  85608704, $GPZDA,234648.00,30,08,2019,00,00*68
  85608704, $GNVTG,323.174,T,,M,2.5762,N,4.7711,K,A*13
  85609704, $GPGGA,234649.00,3908.5506545,N,09622.0854532,W,1,12,1.24,330.9493,M,-28.2911,M,,*6D
  85609704, $GNGSA,M,3,31,20,14,10,24,32,,,,,,,2.06,1.24,1.64*13
  85609704, $GNGSA,M,3,88,73,71,65,72,87,,,,,,,2.06,1.24,1.64*1B
  85609704, $GPZDA,234649.00,30,08,2019,00,00*69
  85609704, $GNVTG,328.575,T,,M,3.0376,N,5.6255,K,A*1D
  85610704, $GPGGA,234650.00,3908.5511742,N,09622.0859725,W,1,11,1.32,331.1294,M,-28.2911,M,,*63
  85610704, $GNGSA,M,3,31,20,14,10,24,32,,,,,,,2.15,1.32,1.69*1B
  85610704, $GNGSA,M,3,88,73,71,72,87,,,,,,,,2.15,1.32,1.69*10
  85610704, $GPZDA,234650.00,30,08,2019,00,00*61
  85610704, $GNVTG,334.198,T,,M,2.6913,N,4.9842,K,A*1B
  85611705, $GPGGA,234651.00,3908.5518943,N,09622.0863324,W,1,11,1.32,330.9731,M,-28.2911,M,,*6B
  85611705, $GNGSA,M,3,31,20,14,10,24,32,,,,,,,2.15,1.32,1.69*1B
  85611705, $GNGSA,M,3,88,73,71,72,87,,,,,,,,2.15,1.32,1.69*10
  85611705, $GPZDA,234651.00,30,08,2019,00,00*60
  85611705, $GNVTG,337.861,T,,M,2.4135,N,4.4698,K,A*1D
  85612704, $GPGGA,234652.00,3908.5525610,N,09622.0865998,W,1,11,1.32,330.8494,M,-28.2911,M,,*69
  85612704, $GNGSA,M,3,31,20,14,10,24,32,,,,,,,2.15,1.32,1.69*1B
  85612704, $GNGSA,M,3,88,73,71,72,87,,,,,,,,2.15,1.32,1.69*10
  85612704, $GPZDA,234652.00,30,08,2019,00,00*63
  85612704, $GNVTG,325.040,T,,M,2.5130,N,4.6541,K,A*14
  85613705, $GPGGA,234653.00,3908.5539700,N,09622.0873634,W,1,12,0.88,329.1310,M,-28.2911,M,,*62
  85613705, $GNGSA,M,3,31,18,20,14,10,24,32,,,,,,1.48,0.88,1.19*1E
  85613705, $GNGSA,M,3,88,73,65,72,87,,,,,,,,1.48,0.88,1.19*19
  85613705, $GPZDA,234653.00,30,08,2019,00,00*62
  85613705, $GNVTG,322.456,T,,M,2.9429,N,5.4502,K,A*15
  85614705, $GPGGA,234654.00,3908.5545938,N,09622.0875817,W,1,12,0.88,329.0377,M,-28.2911,M,,*62
  85614705, $GNGSA,M,3,31,18,20,14,10,24,32,,,,,,1.45,0.88,1.16*1C
  85614705, $GNGSA,M,3,73,71,65,72,87,,,,,,,,1.45,0.88,1.16*1D
  85614705, $GPZDA,234654.00,30,08,2019,00,00*65
  85614705, $GNVTG,339.052,T,,M,2.7576,N,5.1071,K,A*1E
  85615703, $GPGGA,234655.00,3908.5553244,N,09622.0878041,W,1,11,0.91,328.8240,M,-28.2911,M,,*65
  85615703, $GNGSA,M,3,31,18,20,14,10,24,32,,,,,,1.51,0.91,1.20*14
  85615703, $GNGSA,M,3,73,65,72,87,,,,,,,,,1.51,0.91,1.20*13
  85615703, $GPZDA,234655.00,30,08,2019,00,00*64
  85615703, $GNVTG,347.010,T,,M,2.7183,N,5.0343,K,A*1C
  85616704, $GPGGA,234656.00,3908.5562272,N,09622.0882185,W,1,13,0.81,328.8448,M,-28.2911,M,,*60
  85616704, $GNGSA,M,3,31,18,20,14,10,24,21,32,,,,,1.44,0.81,1.19*18
  85616704, $GNGSA,M,3,88,73,65,72,87,,,,,,,,1.44,0.81,1.19*1C
  85616704, $GPZDA,234656.00,30,08,2019,00,00*67
  85616704, $GNVTG,353.875,T,,M,2.7738,N,5.1370,K,A*15
  85617704, $GPGGA,234657.00,3908.5569450,N,09622.0883193,W,1,11,0.86,328.8903,M,-28.2911,M,,*6D
  85617704, $GNGSA,M,3,31,18,20,14,10,24,21,32,,,,,1.48,0.86,1.21*18
  85617704, $GNGSA,M,3,73,72,87,,,,,,,,,,1.48,0.86,1.21*1F
  85617704, $GPZDA,234657.00,30,08,2019,00,00*66
  85617704, $GNVTG,349.302,T,,M,2.0676,N,3.8292,K,A*1B
  85618705, $GPGGA,234658.00,3908.5575430,N,09622.0884938,W,1,14,0.77,328.4911,M,-28.2911,M,,*63
  85618705, $GNGSA,M,3,31,18,20,14,10,24,21,32,,,,,1.38,0.77,1.15*16
  85618705, $GNGSA,M,3,88,73,71,65,72,87,,,,,,,1.38,0.77,1.15*14
  85618705, $GPZDA,234658.00,30,08,2019,00,00*69
  85618705, $GNVTG,344.803,T,,M,2.4948,N,4.6204,K,A*1C
  85619704, $GPGGA,234659.00,3908.5579963,N,09622.0885898,W,1,12,0.82,328.2454,M,-28.2911,M,,*69
  85619704, $GNGSA,M,3,31,18,20,14,10,24,21,32,,,,,1.45,0.82,1.19*1A
  85619704, $GNGSA,M,3,88,73,72,87,,,,,,,,,1.45,0.82,1.19*1D
  85619704, $GPZDA,234659.00,30,08,2019,00,00*68
  85619704, $GNVTG,322.453,T,,M,2.2224,N,4.1159,K,A*1E
  85620704, $GPGGA,234700.00,3908.5589015,N,09622.0889944,W,1,12,0.84,328.3742,M,-28.2911,M,,*6C
  85620704, $GNGSA,M,3,31,18,20,14,10,24,21,32,,,,,1.43,0.84,1.16*15
  85620704, $GNGSA,M,3,73,71,72,87,,,,,,,,,1.43,0.84,1.16*14
  85620704, $GPZDA,234700.00,30,08,2019,00,00*65
  85620704, $GNVTG,347.425,T,,M,1.8420,N,3.4114,K,A*1C
  85621705, $GPGGA,234701.00,3908.5594575,N,09622.0892898,W,1,13,0.79,328.4478,M,-28.2911,M,,*66
  85621705, $GNGSA,M,3,31,18,20,14,10,24,21,32,,,,,1.40,0.79,1.15*17
  85621705, $GNGSA,M,3,88,73,71,72,87,,,,,,,,1.40,0.79,1.15*16
  85621705, $GPZDA,234701.00,30,08,2019,00,00*64
  85621705, $GNVTG,014.294,T,,M,1.2963,N,2.4008,K,A*18
  85622704, $GPGGA,234702.00,3908.5596042,N,09622.0891454,W,1,11,0.86,328.5445,M,-28.2911,M,,*64
  85622704, $GNGSA,M,3,31,18,20,14,10,24,21,32,,,,,1.48,0.86,1.21*18
  85622704, $GNGSA,M,3,73,72,87,,,,,,,,,,1.48,0.86,1.21*1F
  85622704, $GPZDA,234702.00,30,08,2019,00,00*67
  85622704, $GNVTG,335.133,T,,M,0.9330,N,1.7279,K,A*14
  85623704, $GPGGA,234703.00,3908.5603352,N,09622.0893038,W,1,12,0.82,328.8294,M,-28.2911,M,,*64
  85623704, $GNGSA,M,3,31,18,20,14,10,24,21,32,,,,,1.45,0.82,1.19*1A
  85623704, $GNGSA,M,3,88,73,72,87,,,,,,,,,1.45,0.82,1.19*1D
  85623704, $GPZDA,234703.00,30,08,2019,00,00*66
  85623704, $GNVTG,219.457,T,,M,0.7963,N,1.4747,K,A*15
  85624704, $GPGGA,234704.00,3908.5606438,N,09622.0906036,W,1,11,1.04,331.2678,M,-28.2911,M,,*66
  85624704, $GNGSA,M,3,08,18,14,10,24,21,32,,,,,,1.96,1.04,1.66*1B
  85624704, $GNGSA,M,3,88,65,72,87,,,,,,,,,1.96,1.04,1.66*13
  85624704, $GPZDA,234704.00,30,08,2019,00,00*61
  85624704, $GNVTG,304.603,T,,M,0.6894,N,1.2768,K,A*18
  85625705, $GPGGA,234705.00,3908.5601128,N,09622.0904624,W,1,12,0.89,329.4031,M,-28.2911,M,,*60
  85625705, $GNGSA,M,3,08,31,18,20,14,10,24,21,32,,,,1.54,0.89,1.26*15
  85625705, $GNGSA,M,3,65,72,87,,,,,,,,,,1.54,0.89,1.26*1D
  85625705, $GPZDA,234705.00,30,08,2019,00,00*60
  85625705, $GNVTG,173.059,T,,M,0.6937,N,1.2846,K,A*18
  85626704, $GPGGA,234706.00,3908.5602352,N,09622.0903367,W,1,11,1.02,331.2164,M,-28.2911,M,,*65
  85626704, $GNGSA,M,3,08,18,20,14,10,24,21,32,,,,,1.93,1.02,1.64*18
  85626704, $GNGSA,M,3,65,72,87,,,,,,,,,,1.93,1.02,1.64*12
  85626704, $GPZDA,234706.00,30,08,2019,00,00*63
  85626704, $GNVTG,128.567,T,,M,2.6397,N,4.8887,K,A*1E
  85627703, $GPGGA,234707.00,3908.5596607,N,09622.0897427,W,1,11,1.02,331.2470,M,-28.2911,M,,*60
  85627703, $GNGSA,M,3,08,18,20,14,10,24,21,32,,,,,1.93,1.02,1.64*18
  85627703, $GNGSA,M,3,65,72,87,,,,,,,,,,1.93,1.02,1.64*12
  85627703, $GPZDA,234707.00,30,08,2019,00,00*62
  85627703, $GNVTG,126.878,T,,M,2.8351,N,5.2505,K,A*1B
  85628706, $GPGGA,234708.00,3908.5589335,N,09622.0893237,W,1,13,0.88,331.1250,M,-28.2911,M,,*60
  85628706, $GNGSA,M,3,08,18,20,14,10,24,21,27,32,,,,1.58,0.88,1.31*19
  85628706, $GNGSA,M,3,71,65,72,87,,,,,,,,,1.58,0.88,1.31*10
  85628706, $GPZDA,234708.00,30,08,2019,00,00*6D
  85628706, $GNVTG,136.329,T,,M,2.4539,N,4.5446,K,A*11
  85629704, $GPGGA,234709.00,3908.5582267,N,09622.0887418,W,1,13,0.88,331.0062,M,-28.2911,M,,*60
  85629704, $GNGSA,M,3,08,18,20,14,10,24,21,27,32,,,,1.58,0.88,1.31*19
  85629704, $GNGSA,M,3,71,65,72,87,,,,,,,,,1.58,0.88,1.31*10
  85629704, $GPZDA,234709.00,30,08,2019,00,00*6C
  85629704, $GNVTG,144.753,T,,M,2.6709,N,4.9465,K,A*13
  85630705, $GPGGA,234710.00,3908.5575663,N,09622.0881092,W,1,13,0.88,331.0462,M,-28.2911,M,,*64
  85630705, $GNGSA,M,3,08,18,20,14,10,24,21,27,32,,,,1.58,0.88,1.31*19
  85630705, $GNGSA,M,3,71,65,72,87,,,,,,,,,1.58,0.88,1.31*10
  85630705, $GPZDA,234710.00,30,08,2019,00,00*64
  85630705, $GNVTG,142.038,T,,M,2.8015,N,5.1883,K,A*16
  85631704, $GPGGA,234711.00,3908.5569214,N,09622.0875361,W,1,14,0.85,331.3020,M,-28.2911,M,,*63
  85631704, $GNGSA,M,3,08,18,20,14,10,24,21,27,32,,,,1.52,0.85,1.26*18
  85631704, $GNGSA,M,3,73,71,65,72,87,,,,,,,,1.52,0.85,1.26*15
  85631704, $GPZDA,234711.00,30,08,2019,00,00*65
  85631704, $GNVTG,149.022,T,,M,3.0347,N,5.6203,K,A*1E
  85632704, $GPGGA,234712.00,3908.5563810,N,09622.0868820,W,1,14,0.85,331.5776,M,-28.2911,M,,*64
  85632704, $GNGSA,M,3,08,18,20,14,10,24,21,27,32,,,,1.52,0.85,1.26*18
  85632704, $GNGSA,M,3,73,71,65,72,87,,,,,,,,1.52,0.85,1.26*15
  85632704, $GPZDA,234712.00,30,08,2019,00,00*66
  85632704, $GNVTG,142.254,T,,M,2.6093,N,4.8324,K,A*10
  85633705, $GPGGA,234713.00,3908.5557402,N,09622.0862615,W,1,14,0.85,331.6264,M,-28.2911,M,,*6A
  85633705, $GNGSA,M,3,08,18,20,14,10,24,21,27,32,,,,1.52,0.85,1.26*18
  85633705, $GNGSA,M,3,73,71,65,72,87,,,,,,,,1.52,0.85,1.26*15
  85633705, $GPZDA,234713.00,30,08,2019,00,00*67
  85633705, $GNVTG,134.520,T,,M,3.0721,N,5.6895,K,A*12
  85634704, $GPGGA,234714.00,3908.5551708,N,09622.0855743,W,1,14,0.85,331.8350,M,-28.2911,M,,*6C
  85634704, $GNGSA,M,3,08,18,20,14,10,24,21,27,32,,,,1.52,0.85,1.26*18
  85634704, $GNGSA,M,3,73,71,65,72,87,,,,,,,,1.52,0.85,1.26*15
  85634704, $GPZDA,234714.00,30,08,2019,00,00*60
  85634704, $GNVTG,128.811,T,,M,2.9884,N,5.5345,K,A*1D
  85635705, $GPGGA,234715.00,3908.5545957,N,09622.0849037,W,1,13,0.88,331.8595,M,-28.2911,M,,*60
  85635705, $GNGSA,M,3,08,18,20,14,10,24,21,27,32,,,,1.61,0.88,1.35*17
  85635705, $GNGSA,M,3,73,71,65,87,,,,,,,,,1.61,0.88,1.35*1F
  85635705, $GPZDA,234715.00,30,08,2019,00,00*61
  85635705, $GNVTG,124.251,T,,M,2.6430,N,4.8948,K,A*18
  85636705, $GPGGA,234716.00,3908.5539350,N,09622.0841926,W,1,14,0.85,331.7721,M,-28.2911,M,,*6C
  85636705, $GNGSA,M,3,08,18,20,14,10,24,21,27,32,,,,1.51,0.85,1.26*1B
  85636705, $GNGSA,M,3,73,71,65,72,87,,,,,,,,1.51,0.85,1.26*16
  85636705, $GPZDA,234716.00,30,08,2019,00,00*62
  85636705, $GNVTG,128.499,T,,M,2.6942,N,4.9896,K,A*1D
  85637704, $GPGGA,234717.00,3908.5533352,N,09622.0834774,W,1,14,0.85,331.7068,M,-28.2911,M,,*64
  85637704, $GNGSA,M,3,08,18,20,14,10,24,21,27,32,,,,1.51,0.85,1.26*1B
  85637704, $GNGSA,M,3,73,71,65,72,87,,,,,,,,1.51,0.85,1.26*16
  85637704, $GPZDA,234717.00,30,08,2019,00,00*63
  85637704, $GNVTG,136.607,T,,M,2.5879,N,4.7927,K,A*18
  85638704, $GPGGA,234718.00,3908.5527493,N,09622.0827492,W,1,14,0.85,331.7088,M,-28.2912,M,,*60
  85638704, $GNGSA,M,3,08,18,20,14,10,24,21,27,32,,,,1.51,0.85,1.26*1B
  85638704, $GNGSA,M,3,73,71,65,72,87,,,,,,,,1.51,0.85,1.26*16
  85638704, $GPZDA,234718.00,30,08,2019,00,00*6C
  85638704, $GNVTG,139.421,T,,M,2.7205,N,5.0383,K,A*10
  85639704, $GPGGA,234719.00,3908.5521294,N,09622.0821378,W,1,14,0.85,331.7540,M,-28.2912,M,,*62
  85639704, $GNGSA,M,3,08,18,20,14,10,24,21,27,32,,,,1.51,0.85,1.26*1B
  85639704, $GNGSA,M,3,73,71,65,72,87,,,,,,,,1.51,0.85,1.26*16
  85639704, $GPZDA,234719.00,30,08,2019,00,00*6D
  85639704, $GNVTG,151.599,T,,M,3.1563,N,5.8454,K,A*19
  85640705, $GPGGA,234720.00,3908.5515896,N,09622.0815824,W,1,14,0.85,331.7874,M,-28.2912,M,,*68
  85640705, $GNGSA,M,3,08,18,20,14,10,24,21,27,32,,,,1.51,0.85,1.26*1B
  85640705, $GNGSA,M,3,73,71,65,72,87,,,,,,,,1.51,0.85,1.26*16
  85640705, $GPZDA,234720.00,30,08,2019,00,00*67
  85640705, $GNVTG,143.100,T,,M,2.4557,N,4.5479,K,A*1E
  85641705, $GPGGA,234721.00,3908.5510364,N,09622.0809288,W,1,14,0.85,331.8149,M,-28.2912,M,,*63
  85641705, $GNGSA,M,3,08,18,20,14,10,24,21,27,32,,,,1.51,0.85,1.25*18
  85641705, $GNGSA,M,3,73,71,65,72,87,,,,,,,,1.51,0.85,1.25*15
  85641705, $GPZDA,234721.00,30,08,2019,00,00*66
  85641705, $GNVTG,135.612,T,,M,2.7666,N,5.1237,K,A*10
  85642704, $GPGGA,234722.00,3908.5505240,N,09622.0802482,W,1,14,0.85,331.7373,M,-28.2912,M,,*60
  85642704, $GNGSA,M,3,08,18,20,14,10,24,21,27,32,,,,1.51,0.85,1.25*18
  85642704, $GNGSA,M,3,73,71,65,72,87,,,,,,,,1.51,0.85,1.25*15
  85642704, $GPZDA,234722.00,30,08,2019,00,00*65
  85642704, $GNVTG,130.420,T,,M,2.9766,N,5.5127,K,A*1F
  85643705, $GPGGA,234723.00,3908.5499735,N,09622.0795937,W,1,14,0.85,331.8417,M,-28.2912,M,,*6A
  85643705, $GNGSA,M,3,08,18,20,14,10,24,21,27,32,,,,1.51,0.85,1.25*18
  85643705, $GNGSA,M,3,73,71,65,72,87,,,,,,,,1.51,0.85,1.25*15
  85643705, $GPZDA,234723.00,30,08,2019,00,00*64
  85643705, $GNVTG,122.290,T,,M,2.4847,N,4.6016,K,A*11
  85644704, $GPGGA,234724.00,3908.5493798,N,09622.0790094,W,1,14,0.85,331.8085,M,-28.2912,M,,*6A
  85644704, $GNGSA,M,3,08,18,20,14,10,24,21,27,32,,,,1.51,0.85,1.25*18
  85644704, $GNGSA,M,3,73,71,65,72,87,,,,,,,,1.51,0.85,1.25*15
  85644704, $GPZDA,234724.00,30,08,2019,00,00*63
  85644704, $GNVTG,142.025,T,,M,2.3414,N,4.3363,K,A*12
  85645705, $GPGGA,234725.00,3908.5487430,N,09622.0784750,W,1,14,0.85,331.7183,M,-28.2912,M,,*6D
  85645705, $GNGSA,M,3,08,18,20,14,10,24,21,27,32,,,,1.51,0.85,1.25*18
  85645705, $GNGSA,M,3,73,71,65,72,87,,,,,,,,1.51,0.85,1.25*15
  85645705, $GPZDA,234725.00,30,08,2019,00,00*62
  85645705, $GNVTG,148.698,T,,M,2.3553,N,4.3620,K,A*18
  85646704, $GPGGA,234726.00,3908.5481450,N,09622.0778644,W,1,14,0.85,331.6044,M,-28.2912,M,,*62
  85646704, $GNGSA,M,3,08,18,20,14,10,24,21,27,32,,,,1.51,0.85,1.25*18
  85646704, $GNGSA,M,3,73,71,65,72,87,,,,,,,,1.51,0.85,1.25*15
  85646704, $GPZDA,234726.00,30,08,2019,00,00*61
  85646704, $GNVTG,147.891,T,,M,2.7498,N,5.0926,K,A*19
  85647705, $GPGGA,234727.00,3908.5475710,N,09622.0772271,W,1,14,0.85,331.5927,M,-28.2912,M,,*68
  85647705, $GNGSA,M,3,08,18,20,14,10,24,21,27,32,,,,1.51,0.85,1.25*18
  85647705, $GNGSA,M,3,73,71,65,72,87,,,,,,,,1.51,0.85,1.25*15
  85647705, $GPZDA,234727.00,30,08,2019,00,00*60
  85647705, $GNVTG,138.953,T,,M,2.7906,N,5.1683,K,A*15
  85648705, $GPGGA,234728.00,3908.5470414,N,09622.0765623,W,1,14,0.85,331.6091,M,-28.2913,M,,*66
  85648705, $GNGSA,M,3,08,18,20,14,10,24,21,27,32,,,,1.51,0.85,1.25*18
  85648705, $GNGSA,M,3,73,71,65,72,87,,,,,,,,1.51,0.85,1.25*15
  85648705, $GPZDA,234728.00,30,08,2019,00,00*6F
  85648705, $GNVTG,134.932,T,,M,2.5832,N,4.7841,K,A*1D
  85649704, $GPGGA,234729.00,3908.5465732,N,09622.0759831,W,1,15,0.82,331.6087,M,-28.2913,M,,*67
  85649704, $GNGSA,M,3,08,18,20,14,10,24,21,27,32,,,,1.50,0.82,1.25*1E
  85649704, $GNGSA,M,3,73,71,88,65,72,87,,,,,,,1.50,0.82,1.25*13
  85649704, $GPZDA,234729.00,30,08,2019,00,00*6E
  85649704, $GNVTG,139.094,T,,M,2.5969,N,4.8095,K,A*14
  85650704, $GPGGA,234730.00,3908.5460584,N,09622.0755389,W,1,15,0.82,331.5556,M,-28.2913,M,,*6B
  85650704, $GNGSA,M,3,08,18,20,14,10,24,21,27,32,,,,1.50,0.82,1.25*1E
  85650704, $GNGSA,M,3,73,71,88,65,72,87,,,,,,,1.50,0.82,1.25*13
  85650704, $GPZDA,234730.00,30,08,2019,00,00*66
  85650704, $GNVTG,140.923,T,,M,2.1402,N,3.9636,K,A*12
