
    232930, ,00*62
    232930, $GNVTG,324.097,T,,M,0.0515,N,0.0954,K,A*11
    233696, $GPGGA,000353.00,3908.5545743,N,09622.1006780,W,1,12,0.84,333.1500,M,-28.2909,M,,*62
    233696, $GNGSA,M,3,27,14,24,21,20,11,32,,,,,,1.46,0.84,1.19*10
    233696, $GNGSA,M,3,72,73,81,71,87,,,,,,,,1.46,0.84,1.19*17
    233696, $GPZDA,000353.00,31,08,2019,00,00*63
    233696, $GNVTG,336.342,T,,M,0.0563,N,0.1043,K,A*16
    234695, $GPGGA,000354.00,3908.5545747,N,09622.1006750,W,1,12,0.84,333.2259,M,-28.2909,M,,*64
    234695, $GNGSA,M,3,27,14,24,21,20,11,32,,,,,,1.46,0.84,1.19*10
    234695, $GNGSA,M,3,72,73,81,71,87,,,,,,,,1.46,0.84,1.19*17
    234695, $GPZDA,000354.00,31,08,2019,00,00*64
    234695, $GNVTG,061.011,T,,M,0.0351,N,0.0651,K,A*11
    235697, $GPGGA,000355.00,3908.5545807,N,09622.1006709,W,1,12,0.84,333.2869,M,-28.2909,M,,*6B
    235697, $GNGSA,M,3,27,14,24,21,20,11,32,,,,,,1.46,0.84,1.19*10
    235697, $GNGSA,M,3,72,73,81,71,87,,,,,,,,1.46,0.84,1.19*17
    235697, $GPZDA,000355.00,31,08,2019,00,00*65
    235697, $GNVTG,225.020,T,,M,0.0105,N,0.0194,K,A*1C
    236696, $GPGGA,000356.00,3908.5545849,N,09622.1006788,W,1,12,0.84,333.3089,M,-28.2909,M,,*6C
    236696, $GNGSA,M,3,27,14,24,21,20,11,32,,,,,,1.46,0.84,1.19*10
    236696, $GNGSA,M,3,72,73,81,71,87,,,,,,,,1.46,0.84,1.19*17
    236696, $GPZDA,000356.00,31,08,2019,00,00*66
    236696, $GNVTG,233.505,T,,M,0.0341,N,0.0631,K,A*13
    237697, $GPGGA,000357.00,3908.5545829,N,09622.1006829,W,1,12,0.83,333.3411,M,-28.2909,M,,*6D
    237697, $GNGSA,M,3,27,14,24,21,20,11,32,,,,,,1.46,0.83,1.19*17
    237697, $GNGSA,M,3,72,73,81,71,87,,,,,,,,1.46,0.83,1.19*10
    237697, $GPZDA,000357.00,31,08,2019,00,00*67
    237697, $GNVTG,033.242,T,,M,0.0589,N,0.1090,K,A*1B
    238696, $GPGGA,000358.00,3908.5545797,N,09622.1006789,W,1,12,0.83,333.3412,M,-28.2909,M,,*6E
    238696, $GNGSA,M,3,27,14,24,21,20,11,32,,,,,,1.46,0.83,1.19*17
    238696, $GNGSA,M,3,72,73,81,71,87,,,,,,,,1.46,0.83,1.19*10
    238696, $GPZDA,000358.00,31,08,2019,00,00*68
    238696, $GNVTG,174.102,T,,M,0.0079,N,0.0146,K,A*1F
    239696, $GPGGA,000359.00,3908.5545732,N,09622.1006854,W,1,12,0.83,333.3468,M,-28.2909,M,,*62
    239696, $GNGSA,M,3,27,14,24,21,20,11,32,,,,,,1.46,0.83,1.19*17
    239696, $GNGSA,M,3,72,73,81,71,87,,,,,,,,1.46,0.83,1.19*10
    239696, $GPZDA,000359.00,31,08,2019,00,00*69
    239696, $GNVTG,187.447,T,,M,0.0248,N,0.0459,K,A*1C
    240697, $GPGGA,000400.00,3908.5545732,N,09622.1006806,W,1,12,0.83,333.3546,M,-28.2909,M,,*63
    240697, $GNGSA,M,3,27,14,24,21,20,11,32,,,,,,1.46,0.83,1.19*17
    240697, $GNGSA,M,3,72,73,81,71,87,,,,,,,,1.46,0.83,1.19*10
    240697, $GPZDA,000400.00,31,08,2019,00,00*62
    240697, $GNVTG,336.062,T,,M,0.0102,N,0.0190,K,A*1A
    241695, $GPGGA,000401.00,3908.5547148,N,09622.1005282,W,1,12,0.83,333.0946,M,-28.2909,M,,*61
    241695, $GNGSA,M,3,27,14,24,21,20,11,32,,,,,,1.46,0.83,1.19*17
    241695, $GNGSA,M,3,72,73,81,71,87,,,,,,,,1.46,0.83,1.19*10
    241695, $GPZDA,000401.00,31,08,2019,00,00*63
    241695, $GNVTG,130.208,T,,M,0.0180,N,0.0334,K,A*16
    242696, $GPGGA,000402.00,3908.5547168,N,09622.1005312,W,1,12,0.83,333.1033,M,-28.2909,M,,*62
    242696, $GNGSA,M,3,27,14,24,21,20,11,32,,,,,,1.46,0.83,1.19*17
    242696, $GNGSA,M,3,72,73,81,71,87,,,,,,,,1.46,0.83,1.19*10
    242696, $GPZDA,000402.00,31,08,2019,00,00*60
    242696, $GNVTG,008.457,T,,M,0.0552,N,0.1022,K,A*1E
    243696, $GPGGA,000403.00,3908.5547301,N,09622.1005270,W,1,12,0.83,333.1112,M,-28.2909,M,,*69
    243696, $GNGSA,M,3,27,14,24,21,20,11,32,,,,,,1.46,0.83,1.19*17
    243696, $GNGSA,M,3,72,73,81,71,87,,,,,,,,1.46,0.83,1.19*10
    243696, $GPZDA,000403.00,31,08,2019,00,00*61
    243696, $GNVTG,245.479,T,,M,0.0510,N,0.0944,K,A*17
    244696, $GPGGA,000404.00,3908.5547037,N,09622.1005614,W,1,12,0.83,333.2023,M,-28.2909,M,,*6E
    244696, $GNGSA,M,3,27,14,24,21,20,11,32,,,,,,1.45,0.83,1.19*14
    244696, $GNGSA,M,3,72,73,81,71,87,,,,,,,,1.45,0.83,1.19*13
    244696, $GPZDA,000404.00,31,08,2019,00,00*66
    244696, $GNVTG,153.568,T,,M,0.0424,N,0.0786,K,A*14
    245696, $GPGGA,000405.00,3908.5547235,N,09622.1005480,W,1,12,0.83,333.2120,M,-28.2909,M,,*62
    245696, $GNGSA,M,3,27,14,24,21,20,11,32,,,,,,1.45,0.83,1.19*14
    245696, $GNGSA,M,3,72,73,81,71,87,,,,,,,,1.45,0.83,1.19*13
    245696, $GPZDA,000405.00,31,08,2019,00,00*67
    245696, $GNVTG,304.742,T,,M,0.0294,N,0.0544,K,A*1F
    246696, $GPGGA,000406.00,3908.5546637,N,09622.1006099,W,1,11,0.90,333.3914,M,-28.2909,M,,*66
    246696, $GNGSA,M,3,27,14,21,20,11,32,,,,,,,1.49,0.90,1.19*1C
    246696, $GNGSA,M,3,72,73,81,71,87,,,,,,,,1.49,0.90,1.19*1D
    246696, $GPZDA,000406.00,31,08,2019,00,00*64
    246696, $GNVTG,124.130,T,,M,0.1956,N,0.3622,K,A*18
    247696, $GPGGA,000407.00,3908.5544789,N,09622.1007598,W,1,10,0.91,333.7260,M,-28.2909,M,,*68
    247696, $GNGSA,M,3,27,21,20,11,32,,,,,,,,1.53,0.91,1.22*1B
    247696, $GNGSA,M,3,72,73,81,71,87,,,,,,,,1.53,0.91,1.22*1F
    247696, $GPZDA,000407.00,31,08,2019,00,00*65
    247696, $GNVTG,134.381,T,,M,1.2451,N,2.3059,K,A*11
    248696, $GPGGA,000408.00,3908.5538139,N,09622.0995415,W,1,10,1.13,331.6864,M,-28.2909,M,,*60
    248696, $GNGSA,M,3,27,14,20,11,32,,,,,,,,1.78,1.13,1.37*1B
    248696, $GNGSA,M,3,72,73,81,71,87,,,,,,,,1.78,1.13,1.37*19
    248696, $GPZDA,000408.00,31,08,2019,00,00*6A
    248696, $GNVTG,147.921,T,,M,2.3509,N,4.3539,K,A*1E
    249696, $GPGGA,000409.00,3908.5538158,N,09622.0995584,W,1,12,0.88,331.2294,M,-28.2909,M,,*6F
    249696, $GNGSA,M,3,08,27,14,21,20,11,32,,,,,,1.47,0.88,1.18*12
    249696, $GNGSA,M,3,72,73,81,71,87,,,,,,,,1.47,0.88,1.18*1B
    249696, $GPZDA,000409.00,31,08,2019,00,00*6B
    249696, $GNVTG,160.056,T,,M,2.3638,N,4.3778,K,A*14
    250696, $GPGGA,000410.00,3908.5523543,N,09622.0987081,W,1,10,0.96,332.2338,M,-28.2909,M,,*69
    250696, $GNGSA,M,3,27,14,21,11,32,,,,,,,,1.58,0.96,1.25*17
    250696, $GNGSA,M,3,72,73,81,71,87,,,,,,,,1.58,0.96,1.25*14
    250696, $GPZDA,000410.00,31,08,2019,00,00*63
    250696, $GNVTG,141.338,T,,M,2.2973,N,4.2545,K,A*10
    251696, $GPGGA,000411.00,3908.5526061,N,09622.0990096,W,1,13,0.84,332.9625,M,-28.2909,M,,*6A
    251696, $GNGSA,M,3,10,08,27,14,21,20,11,32,,,,,1.35,0.84,1.06*15
    251696, $GNGSA,M,3,72,73,81,71,87,,,,,,,,1.35,0.84,1.06*1D
    251696, $GPZDA,000411.00,31,08,2019,00,00*62
    251696, $GNVTG,145.068,T,,M,2.5713,N,4.7620,K,A*18
    252696, $GPGGA,000412.00,3908.5521836,N,09622.0985090,W,1,13,0.84,332.9501,M,-28.2909,M,,*63
    252696, $GNGSA,M,3,10,08,27,14,21,20,11,32,,,,,1.35,0.84,1.06*15
    252696, $GNGSA,M,3,72,73,81,71,87,,,,,,,,1.35,0.84,1.06*1D
    252696, $GPZDA,000412.00,31,08,2019,00,00*61
    252696, $GNVTG,132.611,T,,M,2.7637,N,5.1183,K,A*1C
    253696, $GPGGA,000413.00,3908.5509067,N,09622.0973678,W,1,12,0.88,331.6931,M,-28.2909,M,,*63
    253696, $GNGSA,M,3,10,08,27,14,21,20,11,32,,,,,1.41,0.88,1.10*1D
    253696, $GNGSA,M,3,72,73,71,87,,,,,,,,,1.41,0.88,1.10*1C
    253696, $GPZDA,000413.00,31,08,2019,00,00*60
    253696, $GNVTG,140.434,T,,M,2.4785,N,4.5903,K,A*12
    254697, $GPGGA,000414.00,3908.5504471,N,09622.0966346,W,1,12,1.08,331.7453,M,-28.2909,M,,*67
    254697, $GNGSA,M,3,10,18,08,27,14,20,11,32,,,,,1.64,1.08,1.23*19
    254697, $GNGSA,M,3,72,73,71,87,,,,,,,,,1.64,1.08,1.23*12
    254697, $GPZDA,000414.00,31,08,2019,00,00*67
    254697, $GNVTG,124.456,T,,M,2.3866,N,4.4200,K,A*18
    255697, $GPGGA,000415.00,3908.5502002,N,09622.0959656,W,1,11,1.23,331.9578,M,-28.2909,M,,*64
    255697, $GNGSA,M,3,10,18,08,27,14,20,11,32,,,,,1.90,1.23,1.45*1B
    255697, $GNGSA,M,3,73,71,87,,,,,,,,,,1.90,1.23,1.45*15
    255697, $GPZDA,000415.00,31,08,2019,00,00*66
    255697, $GNVTG,127.054,T,,M,2.6178,N,4.8482,K,A*1E
    256695, $GPGGA,000416.00,3908.5492332,N,09622.0947925,W,1,12,0.85,330.4898,M,-28.2909,M,,*6A
    256695, $GNGSA,M,3,10,18,08,27,14,31,20,11,32,,,,1.39,0.85,1.10*17
    256695, $GNGSA,M,3,73,71,87,,,,,,,,,,1.39,0.85,1.10*1B
    256695, $GPZDA,000416.00,31,08,2019,00,00*65
    256695, $GNVTG,128.110,T,,M,2.6746,N,4.9534,K,A*16
    257696, $GPGGA,000417.00,3908.5487903,N,09622.0940718,W,1,12,0.85,330.5561,M,-28.2909,M,,*6A
    257696, $GNGSA,M,3,10,18,08,27,14,31,20,11,32,,,,1.39,0.85,1.10*17
    257696, $GNGSA,M,3,73,71,87,,,,,,,,,,1.39,0.85,1.10*1B
    257696, $GPZDA,000417.00,31,08,2019,00,00*64
    257696, $GNVTG,127.143,T,,M,2.3949,N,4.4354,K,A*16
    258696, $GPGGA,000418.00,3908.5483666,N,09622.0934055,W,1,12,0.85,330.6489,M,-28.2909,M,,*64
    258696, $GNGSA,M,3,10,18,08,27,14,31,20,11,32,,,,1.39,0.85,1.10*17
    258696, $GNGSA,M,3,73,71,87,,,,,,,,,,1.39,0.85,1.10*1B
    258696, $GPZDA,000418.00,31,08,2019,00,00*6B
    258696, $GNVTG,123.504,T,,M,2.5579,N,4.7373,K,A*1A
    259696, $GPGGA,000419.00,3908.5479722,N,09622.0925598,W,1,11,0.91,330.0674,M,-28.2909,M,,*65
    259696, $GNGSA,M,3,10,18,08,27,14,31,20,32,,,,,1.50,0.91,1.18*15
    259696, $GNGSA,M,3,73,71,87,,,,,,,,,,1.50,0.91,1.18*19
    259696, $GPZDA,000419.00,31,08,2019,00,00*6A
    259696, $GNVTG,117.066,T,,M,2.8586,N,5.2941,K,A*1E
    260695, $GPGGA,000420.00,3908.5480263,N,09622.0921463,W,1,12,0.85,331.0339,M,-28.2909,M,,*63
    260695, $GNGSA,M,3,10,18,08,27,14,31,20,11,32,,,,1.39,0.85,1.10*17
    260695, $GNGSA,M,3,73,71,87,,,,,,,,,,1.39,0.85,1.10*1B
    260695, $GPZDA,000420.00,31,08,2019,00,00*60
    260695, $GNVTG,115.355,T,,M,2.9204,N,5.4086,K,A*17
    261696, $GPGGA,000421.00,3908.5474282,N,09622.0914302,W,1,12,0.85,330.8974,M,-28.2909,M,,*6A
    261696, $GNGSA,M,3,10,18,08,27,14,31,20,11,32,,,,1.39,0.85,1.10*17
    261696, $GNGSA,M,3,73,71,87,,,,,,,,,,1.39,0.85,1.10*1B
    261696, $GPZDA,000421.00,31,08,2019,00,00*61
    261696, $GNVTG,120.185,T,,M,2.7752,N,5.1396,K,A*11
    262697, $GPGGA,000422.00,3908.5479127,N,09622.0912540,W,1,11,1.22,332.6466,M,-28.2910,M,,*6B
    262697, $GNGSA,M,3,10,18,08,27,14,20,11,32,,,,,1.90,1.22,1.45*1A
    262697, $GNGSA,M,3,73,71,87,,,,,,,,,,1.90,1.22,1.45*14
    262697, $GPZDA,000422.00,31,08,2019,00,00*62
    262697, $GNVTG,128.333,T,,M,2.6004,N,4.8160,K,A*10
    263696, $GPGGA,000423.00,3908.5463813,N,09622.0897387,W,1,12,0.85,329.9311,M,-28.2910,M,,*63
    263696, $GNGSA,M,3,10,18,08,27,14,31,20,11,32,,,,1.39,0.85,1.10*17
    263696, $GNGSA,M,3,73,71,87,,,,,,,,,,1.39,0.85,1.10*1B
    263696, $GPZDA,000423.00,31,08,2019,00,00*63
    263696, $GNVTG,139.374,T,,M,2.9185,N,5.4050,K,A*1B
    264696, $GPGGA,000424.00,3908.5460884,N,09622.0891281,W,1,12,0.85,330.3575,M,-28.2910,M,,*6E
    264696, $GNGSA,M,3,10,18,08,27,14,31,20,11,32,,,,1.39,0.85,1.10*17
    264696, $GNGSA,M,3,73,71,87,,,,,,,,,,1.39,0.85,1.10*1B
    264696, $GPZDA,000424.00,31,08,2019,00,00*64
    264696, $GNVTG,137.437,T,,M,2.6372,N,4.8840,K,A*14
    265696, $GPGGA,000425.00,3908.5455852,N,09622.0887228,W,1,13,0.80,331.0603,M,-28.2910,M,,*62
    265696, $GNGSA,M,3,10,18,08,27,14,31,24,20,11,32,,,1.35,0.80,1.09*10
    265696, $GNGSA,M,3,73,71,87,,,,,,,,,,1.35,0.80,1.09*1A
    265696, $GPZDA,000425.00,31,08,2019,00,00*65
    265696, $GNVTG,127.178,T,,M,2.3715,N,4.3920,K,A*17
    266696, $GPGGA,000426.00,3908.5458781,N,09622.0883543,W,1,13,1.01,332.5501,M,-28.2910,M,,*6C
    266696, $GNGSA,M,3,10,18,08,27,14,24,20,11,32,,,,1.63,1.01,1.27*15
    266696, $GNGSA,M,3,73,88,71,87,,,,,,,,,1.63,1.01,1.27*1D
    266696, $GPZDA,000426.00,31,08,2019,00,00*66
    266696, $GNVTG,124.608,T,,M,2.6020,N,4.8189,K,A*10
    267696, $GPGGA,000427.00,3908.5453943,N,09622.0877471,W,1,13,1.01,332.5325,M,-28.2910,M,,*6D
    267696, $GNGSA,M,3,10,18,08,27,14,24,20,11,32,,,,1.63,1.01,1.27*15
    267696, $GNGSA,M,3,73,88,71,87,,,,,,,,,1.63,1.01,1.27*1D
    267696, $GPZDA,000427.00,31,08,2019,00,00*67
    267696, $GNVTG,124.963,T,,M,2.9636,N,5.4887,K,A*16
    268695, $GPGGA,000428.00,3908.5449848,N,09622.0871085,W,1,13,1.01,332.4916,M,-28.2910,M,,*61
    268695, $GNGSA,M,3,10,18,08,27,14,24,20,11,32,,,,1.63,1.01,1.27*15
    268695, $GNGSA,M,3,73,88,71,87,,,,,,,,,1.63,1.01,1.27*1D
    268695, $GPZDA,000428.00,31,08,2019,00,00*68
    268695, $GNVTG,122.451,T,,M,2.8185,N,5.2199,K,A*12
    269697, $GPGGA,000429.00,3908.5445072,N,09622.0863349,W,1,12,1.18,332.4550,M,-28.2910,M,,*6A
    269697, $GNGSA,M,3,10,18,08,27,14,24,20,11,32,,,,1.84,1.18,1.41*14
    269697, $GNGSA,M,3,73,71,87,,,,,,,,,,1.84,1.18,1.41*1C
    269697, $GPZDA,000429.00,31,08,2019,00,00*69
    269697, $GNVTG,119.496,T,,M,2.5192,N,4.6656,K,A*1B
    270696, $GPGGA,000430.00,3908.5441337,N,09622.0854381,W,1,12,1.18,332.2393,M,-28.2910,M,,*6B
    270696, $GNGSA,M,3,10,18,08,27,14,24,20,11,32,,,,1.84,1.18,1.41*14
    270696, $GNGSA,M,3,73,71,87,,,,,,,,,,1.84,1.18,1.41*1C
    270696, $GPZDA,000430.00,31,08,2019,00,00*61
    270696, $GNVTG,121.037,T,,M,2.3239,N,4.3038,K,A*10
    271697, $GPGGA,000431.00,3908.5438298,N,09622.0847227,W,1,13,1.01,332.3389,M,-28.2910,M,,*6C
    271697, $GNGSA,M,3,10,18,08,27,14,24,20,11,32,,,,1.62,1.01,1.27*14
    271697, $GNGSA,M,3,73,88,71,87,,,,,,,,,1.62,1.01,1.27*1C
    271697, $GPZDA,000431.00,31,08,2019,00,00*60
    271697, $GNVTG,136.943,T,,M,2.6346,N,4.8792,K,A*1C
    272696, $GPGGA,000432.00,3908.5434864,N,09622.0840167,W,1,12,1.08,332.5868,M,-28.2911,M,,*61
    272696, $GNGSA,M,3,10,18,08,27,14,24,20,11,32,,,,1.77,1.08,1.40*18
    272696, $GNGSA,M,3,73,88,87,,,,,,,,,,1.77,1.08,1.40*16
    272696, $GPZDA,000432.00,31,08,2019,00,00*63
    272696, $GNVTG,130.912,T,,M,2.5228,N,4.6722,K,A*11
    273696, $GPGGA,000433.00,3908.5430648,N,09622.0832914,W,1,14,0.96,332.2277,M,-28.2911,M,,*6E
    273696, $GNGSA,M,3,10,18,08,27,14,24,20,11,32,,,,1.51,0.96,1.17*18
    273696, $GNGSA,M,3,72,73,88,71,87,,,,,,,,1.51,0.96,1.17*15
    273696, $GPZDA,000433.00,31,08,2019,00,00*62
    273696, $GNVTG,129.030,T,,M,2.2740,N,4.2115,K,A*1A
    274696, $GPGGA,000434.00,3908.5425228,N,09622.0825785,W,1,14,0.96,331.9979,M,-28.2911,M,,*62
    274696, $GNGSA,M,3,10,18,08,27,14,24,20,11,32,,,,1.51,0.96,1.17*18
    274696, $GNGSA,M,3,72,73,88,71,87,,,,,,,,1.51,0.96,1.17*15
    274696, $GPZDA,000434.00,31,08,2019,00,00*65
    274696, $GNVTG,123.904,T,,M,2.5171,N,4.6617,K,A*1C
    275695, $GPGGA,000435.00,3908.5419915,N,09622.0819389,W,1,13,1.04,331.9201,M,-28.2911,M,,*67
    275695, $GNGSA,M,3,10,18,08,27,14,24,20,11,32,,,,1.69,1.04,1.33*1F
    275695, $GNGSA,M,3,72,73,88,87,,,,,,,,,1.69,1.04,1.33*14
    275695, $GPZDA,000435.00,31,08,2019,00,00*64
    275695, $GNVTG,127.020,T,,M,2.6488,N,4.9055,K,A*18
    276696, $GPGGA,000436.00,3908.5414149,N,09622.0815694,W,1,13,1.04,332.1594,M,-28.2911,M,,*6D
    276696, $GNGSA,M,3,10,18,08,27,14,24,20,11,32,,,,1.69,1.04,1.33*1F
    276696, $GNGSA,M,3,72,73,88,87,,,,,,,,,1.69,1.04,1.33*14
    276696, $GPZDA,000436.00,31,08,2019,00,00*67
    276696, $GNVTG,154.472,T,,M,3.0227,N,5.5981,K,A*16
    277696, $GPGGA,000437.00,3908.5407141,N,09622.0816243,W,1,12,1.10,331.9661,M,-28.2912,M,,*6E
    277696, $GNGSA,M,3,10,18,08,27,14,24,20,32,,,,,1.77,1.10,1.38*1E
    277696, $GNGSA,M,3,72,73,88,87,,,,,,,,,1.77,1.10,1.38*15
    277696, $GPZDA,000437.00,31,08,2019,00,00*66
    277696, $GNVTG,206.423,T,,M,2.1213,N,3.9287,K,A*16
    278696, $GPGGA,000438.00,3908.5395229,N,09622.0817864,W,1,13,0.73,330.5802,M,-28.2912,M,,*6D
    278696, $GNGSA,M,3,10,18,14,31,24,20,11,32,,,,,1.26,0.73,1.03*19
    278696, $GNGSA,M,3,72,73,88,75,87,,,,,,,,1.26,0.73,1.03*1F
    278696, $GPZDA,000438.00,31,08,2019,00,00*69
    278696, $GNVTG,223.394,T,,M,2.3134,N,4.2844,K,A*17
    279696, $GPGGA,000439.00,3908.5391999,N,09622.0821702,W,1,13,0.73,330.7482,M,-28.2912,M,,*64
    279696, $GNGSA,M,3,10,18,14,31,24,20,11,32,,,,,1.26,0.73,1.03*19
    279696, $GNGSA,M,3,72,73,88,75,87,,,,,,,,1.26,0.73,1.03*1F
    279696, $GPZDA,000439.00,31,08,2019,00,00*68
    279696, $GNVTG,295.618,T,,M,0.4775,N,0.8844,K,A*13
    280696, $GPGGA,000440.00,3908.5391509,N,09622.0823022,W,1,12,0.80,330.8708,M,-28.2912,M,,*6B
    280696, $GNGSA,M,3,10,18,14,31,24,20,32,,,,,,1.50,0.80,1.27*12
    280696, $GNGSA,M,3,72,73,88,75,87,,,,,,,,1.50,0.80,1.27*14
    280696, $GPZDA,000440.00,31,08,2019,00,00*66
    280696, $GNVTG,105.353,T,,M,0.0862,N,0.1596,K,A*15
    281696, $GPGGA,000441.00,3908.5391942,N,09622.0823147,W,1,11,0.86,331.2416,M,-28.2912,M,,*69
    281696, $GNGSA,M,3,10,18,14,31,24,20,32,,,,,,1.54,0.86,1.27*10
    281696, $GNGSA,M,3,72,73,75,87,,,,,,,,,1.54,0.86,1.27*16
    281696, $GPZDA,000441.00,31,08,2019,00,00*67
    281696, $GNVTG,328.109,T,,M,0.3034,N,0.5619,K,A*1D
    282696, $GPGGA,000442.00,3908.5391196,N,09622.0823403,W,1,12,0.78,331.5492,M,-28.2911,M,,*64
    282696, $GNGSA,M,3,10,18,14,31,24,20,32,,,,,,1.54,0.78,1.32*15
    282696, $GNGSA,M,3,73,88,65,75,87,,,,,,,,1.54,0.78,1.32*15
    282696, $GPZDA,000442.00,31,08,2019,00,00*64
    282696, $GNVTG,178.204,T,,M,1.1190,N,2.0723,K,A*17
    283695, $GPGGA,000443.00,3908.5390596,N,09622.0823639,W,1,12,0.78,331.6141,M,-28.2911,M,,*63
    283695, $GNGSA,M,3,10,18,14,31,24,20,32,,,,,,1.54,0.78,1.32*15
    283695, $GNGSA,M,3,73,88,65,75,87,,,,,,,,1.54,0.78,1.32*15
    283695, $GPZDA,000443.00,31,08,2019,00,00*65
    283695, $GNVTG,326.077,T,,M,1.6257,N,3.0108,K,A*19
    284696, $GPGGA,000444.00,3908.5394050,N,09622.0828052,W,1,12,0.78,331.4646,M,-28.2911,M,,*6D
    284696, $GNGSA,M,3,10,18,14,31,24,20,32,,,,,,1.54,0.78,1.32*15
    284696, $GNGSA,M,3,73,88,65,75,87,,,,,,,,1.54,0.78,1.32*15
    284696, $GPZDA,000444.00,31,08,2019,00,00*62
    284696, $GNVTG,309.722,T,,M,2.2497,N,4.1665,K,A*14
    285695, $GPGGA,000445.00,3908.5398744,N,09622.0834676,W,1,10,0.88,331.3773,M,-28.2911,M,,*62
    285695, $GNGSA,M,3,10,18,14,31,24,20,32,,,,,,1.59,0.88,1.33*16
    285695, $GNGSA,M,3,73,75,87,,,,,,,,,,1.59,0.88,1.33*15
    285695, $GPZDA,000445.00,31,08,2019,00,00*63
    285695, $GNVTG,301.298,T,,M,2.6804,N,4.9642,K,A*17
    286696, $GPGGA,000446.00,3908.5404725,N,09622.0841313,W,1,10,0.91,331.2304,M,-28.2911,M,,*6D
    286696, $GNGSA,M,3,10,18,14,31,24,20,32,,,,,,1.68,0.91,1.41*19
    286696, $GNGSA,M,3,73,65,87,,,,,,,,,,1.68,0.91,1.41*1B
    286696, $GPZDA,000446.00,31,08,2019,00,00*60
    286696, $GNVTG,318.252,T,,M,2.4015,N,4.4476,K,A*1B
    287695, $GPGGA,000447.00,3908.5409637,N,09622.0845397,W,1,12,0.78,330.9639,M,-28.2911,M,,*6F
    287695, $GNGSA,M,3,10,18,14,31,24,20,32,,,,,,1.54,0.78,1.32*15
    287695, $GNGSA,M,3,73,88,65,75,87,,,,,,,,1.54,0.78,1.32*15
    287695, $GPZDA,000447.00,31,08,2019,00,00*61
    287695, $GNVTG,325.219,T,,M,2.2523,N,4.1712,K,A*18
    288695, $GPGGA,000448.00,3908.5416681,N,09622.0850673,W,1,10,0.88,330.9842,M,-28.2911,M,,*67
    288695, $GNGSA,M,3,10,18,14,31,24,20,32,,,,,,1.59,0.88,1.33*16
    288695, $GNGSA,M,3,73,75,87,,,,,,,,,,1.59,0.88,1.33*15
    288695, $GPZDA,000448.00,31,08,2019,00,00*6E
    288695, $GNVTG,340.210,T,,M,2.3975,N,4.4403,K,A*1A
    289696, $GPGGA,000449.00,3908.5415843,N,09622.0848503,W,1,11,1.07,334.0645,M,-28.2911,M,,*6B
    289696, $GNGSA,M,3,10,21,14,31,24,20,32,,,,,,2.22,1.07,1.94*18
    289696, $GNGSA,M,3,73,65,75,87,,,,,,,,,2.22,1.07,1.94*12
    289696, $GPZDA,000449.00,31,08,2019,00,00*6F
    289696, $GNVTG,353.358,T,,M,2.4516,N,4.5403,K,A*1A
    290696, $GPGGA,000450.00,3908.5429187,N,09622.0854946,W,1,11,0.82,332.6267,M,-28.2911,M,,*65
    290696, $GNGSA,M,3,10,18,21,14,31,24,20,32,,,,,1.56,0.82,1.33*10
    290696, $GNGSA,M,3,73,75,87,,,,,,,,,,1.56,0.82,1.33*10
    290696, $GPZDA,000450.00,31,08,2019,00,00*67
    290696, $GNVTG,342.236,T,,M,2.3504,N,4.3529,K,A*18
    291696, $GPGGA,000451.00,3908.5436740,N,09622.0857984,W,1,12,0.78,332.7573,M,-28.2911,M,,*6F
    291696, $GNGSA,M,3,10,18,21,14,31,24,20,32,,,,,1.53,0.78,1.32*11
    291696, $GNGSA,M,3,73,65,75,87,,,,,,,,,1.53,0.78,1.32*12
    291696, $GPZDA,000451.00,31,08,2019,00,00*66
    291696, $GNVTG,333.900,T,,M,2.0663,N,3.8268,K,A*1F
    292696, $GPGGA,000452.00,3908.5443664,N,09622.0862609,W,1,12,0.78,332.0926,M,-28.2911,M,,*6E
    292696, $GNGSA,M,3,10,18,21,14,31,24,20,32,,,,,1.53,0.78,1.32*11
    292696, $GNGSA,M,3,73,65,75,87,,,,,,,,,1.53,0.78,1.32*12
    292696, $GPZDA,000452.00,31,08,2019,00,00*65
    292696, $GNVTG,326.933,T,,M,2.3576,N,4.3663,K,A*1C
    293696, $GPGGA,000453.00,3908.5447907,N,09622.0865410,W,1,13,0.72,332.3161,M,-28.2911,M,,*6F
    293696, $GNGSA,M,3,10,18,08,21,14,31,24,20,32,,,,1.36,0.72,1.16*16
    293696, $GNGSA,M,3,73,65,75,87,,,,,,,,,1.36,0.72,1.16*1D
    293696, $GPZDA,000453.00,31,08,2019,00,00*64
    293696, $GNVTG,311.791,T,,M,2.5568,N,4.7352,K,A*14
    294696, $GPGGA,000454.00,3908.5448521,N,09622.0869060,W,1,13,0.71,333.4207,M,-28.2911,M,,*66
    294696, $GNGSA,M,3,10,08,21,14,31,11,24,20,32,,,,1.26,0.71,1.04*1E
    294696, $GNGSA,M,3,73,65,75,87,,,,,,,,,1.26,0.71,1.04*1C
    294696, $GPZDA,000454.00,31,08,2019,00,00*63
    294696, $GNVTG,314.450,T,,M,2.3660,N,4.3818,K,A*13
    295696, $GPGGA,000455.00,3908.5455821,N,09622.0878445,W,1,15,0.72,332.8252,M,-28.2911,M,,*6D
    295696, $GNGSA,M,3,10,18,08,21,14,31,11,24,20,32,,,1.32,0.72,1.11*15
    295696, $GNGSA,M,3,72,88,73,65,87,,,,,,,,1.32,0.72,1.11*19
    295696, $GPZDA,000455.00,31,08,2019,00,00*62
    295696, $GNVTG,311.396,T,,M,2.1568,N,3.9944,K,A*17
    296697, $GPGGA,000456.00,3908.5458415,N,09622.0885959,W,1,15,0.68,332.9512,M,-28.2911,M,,*63
    296697, $GNGSA,M,3,10,08,21,14,31,11,24,20,32,,,,1.22,0.68,1.01*17
    296697, $GNGSA,M,3,72,88,73,65,75,87,,,,,,,1.22,0.68,1.01*10
    296697, $GPZDA,000456.00,31,08,2019,00,00*61
    296697, $GNVTG,309.057,T,,M,2.4067,N,4.4573,K,A*1D
    297696, $GPGGA,000457.00,3908.5464096,N,09622.0896428,W,1,14,0.72,332.1940,M,-28.2910,M,,*63
    297696, $GNGSA,M,3,10,18,08,21,14,31,11,24,20,32,,,1.26,0.72,1.04*14
    297696, $GNGSA,M,3,72,88,73,86,,,,,,,,,1.26,0.72,1.04*1A
    297696, $GPZDA,000457.00,31,08,2019,00,00*60
    297696, $GNVTG,308.897,T,,M,2.2774,N,4.2177,K,A*1D
    298696, $GPGGA,000458.00,3908.5464777,N,09622.0902963,W,1,15,0.69,332.6112,M,-28.2910,M,,*69
    298696, $GNGSA,M,3,10,08,21,14,31,11,24,20,32,,,,1.22,0.69,1.01*16
    298696, $GNGSA,M,3,72,88,73,65,86,87,,,,,,,1.22,0.69,1.01*1D
    298696, $GPZDA,000458.00,31,08,2019,00,00*6F
    298696, $GNVTG,303.965,T,,M,2.5679,N,4.7558,K,A*1D
    299696, $GPGGA,000459.00,3908.5468576,N,09622.0910995,W,1,15,0.69,332.4761,M,-28.2910,M,,*6D
    299696, $GNGSA,M,3,10,08,21,14,31,11,24,20,32,,,,1.22,0.69,1.01*16
    299696, $GNGSA,M,3,72,88,73,65,86,87,,,,,,,1.22,0.69,1.01*1D
    299696, $GPZDA,000459.00,31,08,2019,00,00*6E
    299696, $GNVTG,301.796,T,,M,2.2398,N,4.1480,K,A*12
    300696, $GPGGA,000500.00,3908.5472635,N,09622.0918644,W,1,15,0.69,332.3526,M,-28.2910,M,,*62
    300696, $GNGSA,M,3,10,08,21,14,31,11,24,20,32,,,,1.22,0.69,1.01*16
    300696, $GNGSA,M,3,72,88,73,65,86,87,,,,,,,1.22,0.69,1.01*1D
    300696, $GPZDA,000500.00,31,08,2019,00,00*63
    300696, $GNVTG,298.531,T,,M,2.4587,N,4.5535,K,A*19
    301696, $GPGGA,000501.00,3908.5476632,N,09622.0926607,W,1,15,0.69,332.2596,M,-28.2910,M,,*60
    301696, $GNGSA,M,3,10,08,21,14,31,11,24,20,32,,,,1.22,0.69,1.01*16
    301696, $GNGSA,M,3,72,88,73,65,86,87,,,,,,,1.22,0.69,1.01*1D
    301696, $GPZDA,000501.00,31,08,2019,00,00*62
    301696, $GNVTG,300.628,T,,M,2.4843,N,4.6009,K,A*1E
    302696, $GPGGA,000502.00,3908.5480896,N,09622.0934198,W,1,14,0.71,332.3492,M,-28.2910,M,,*64
    302696, $GNGSA,M,3,10,08,21,14,31,11,24,20,32,,,,1.23,0.71,1.01*1E
    302696, $GNGSA,M,3,72,73,65,86,87,,,,,,,,1.23,0.71,1.01*15
    302696, $GPZDA,000502.00,31,08,2019,00,00*61
    302696, $GNVTG,303.948,T,,M,2.4857,N,4.6035,K,A*1E
    303697, $GPGGA,000503.00,3908.5484947,N,09622.0943713,W,1,14,0.71,332.3990,M,-28.2910,M,,*66
    303697, $GNGSA,M,3,10,08,21,14,31,11,24,20,32,,,,1.23,0.71,1.01*1E
    303697, $GNGSA,M,3,72,73,65,86,87,,,,,,,,1.23,0.71,1.01*15
    303697, $GPZDA,000503.00,31,08,2019,00,00*60
    303697, $GNVTG,317.504,T,,M,2.4782,N,4.5897,K,A*1B
    304696, $GPGGA,000504.00,3908.5492666,N,09622.0954814,W,1,15,0.69,332.8070,M,-28.2910,M,,*60
    304696, $GNGSA,M,3,10,08,21,14,31,11,24,20,32,,,,1.22,0.69,1.01*16
    304696, $GNGSA,M,3,72,88,73,65,86,87,,,,,,,1.22,0.69,1.01*1D
    304696, $GPZDA,000504.00,31,08,2019,00,00*67
    304696, $GNVTG,309.335,T,,M,2.5651,N,4.7506,K,A*19
    305696, $GPGGA,000505.00,3908.5496860,N,09622.0961286,W,1,16,0.65,332.4425,M,-28.2910,M,,*6D
    305696, $GNGSA,M,3,10,08,21,14,31,11,24,20,32,,,,1.16,0.65,0.97*13
    305696, $GNGSA,M,3,71,72,88,73,65,86,87,,,,,,1.16,0.65,0.97*1E
    305696, $GPZDA,000505.00,31,08,2019,00,00*66
    305696, $GNVTG,306.311,T,,M,2.5634,N,4.7474,K,A*17
    306696, $GPGGA,000506.00,3908.5500218,N,09622.0969403,W,1,16,0.65,332.3029,M,-28.2909,M,,*61
    306696, $GNGSA,M,3,10,08,21,14,31,11,24,20,32,,,,1.16,0.65,0.97*13
    306696, $GNGSA,M,3,71,72,88,73,65,86,87,,,,,,1.16,0.65,0.97*1E
    306696, $GPZDA,000506.00,31,08,2019,00,00*65
    306696, $GNVTG,298.174,T,,M,2.4932,N,4.6174,K,A*1C
    307696, $GPGGA,000507.00,3908.5502274,N,09622.0978033,W,1,16,0.66,333.1795,M,-28.2909,M,,*6F
    307696, $GNGSA,M,3,10,08,21,14,31,11,24,20,27,32,,,1.18,0.66,0.98*14
    307696, $GNGSA,M,3,71,72,88,73,65,86,,,,,,,1.18,0.66,0.98*13
    307696, $GPZDA,000507.00,31,08,2019,00,00*64
    307696, $GNVTG,288.834,T,,M,2.6572,N,4.9212,K,A*16
    308697, $GPGGA,000508.00,3908.5506736,N,09622.0984751,W,1,17,0.63,332.8867,M,-28.2909,M,,*69
    308697, $GNGSA,M,3,10,08,21,14,31,11,24,20,27,32,,,1.14,0.63,0.95*10
    308697, $GNGSA,M,3,71,72,88,73,65,86,87,,,,,,1.14,0.63,0.95*18
    308697, $GPZDA,000508.00,31,08,2019,00,00*6B
    308697, $GNVTG,297.027,T,,M,2.6869,N,4.9761,K,A*14
    309697, $GPGGA,000509.00,3908.5509920,N,09622.0989683,W,1,17,0.63,333.1385,M,-28.2909,M,,*62
    309697, $GNGSA,M,3,10,08,21,14,31,11,24,20,27,32,,,1.14,0.63,0.95*10
    309697, $GNGSA,M,3,71,72,88,73,65,86,87,,,,,,1.14,0.63,0.95*18
    309697, $GPZDA,000509.00,31,08,2019,00,00*6A
    309697, $GNVTG,301.232,T,,M,2.4144,N,4.4715,K,A*16
    310697, $GPGGA,000510.00,3908.5512746,N,09622.0996465,W,1,17,0.63,333.6539,M,-28.2909,M,,*6C
    310697, $GNGSA,M,3,10,08,21,14,31,11,24,20,27,32,,,1.14,0.63,0.95*10
    310697, $GNGSA,M,3,71,72,88,73,65,86,87,,,,,,1.14,0.63,0.95*18
    310697, $GPZDA,000510.00,31,08,2019,00,00*62
    310697, $GNVTG,312.998,T,,M,2.5170,N,4.6614,K,A*1B
    311696, $GPGGA,000511.00,3908.5515655,N,09622.1004876,W,1,16,0.66,333.4883,M,-28.2909,M,,*6E
    311696, $GNGSA,M,3,10,08,21,14,31,11,24,20,27,32,,,1.18,0.66,0.98*14
    311696, $GNGSA,M,3,71,72,88,73,65,86,,,,,,,1.18,0.66,0.98*13
    311696, $GPZDA,000511.00,31,08,2019,00,00*63
    311696, $GNVTG,311.868,T,,M,2.3200,N,4.2967,K,A*1B
    312696, $GPGGA,000512.00,3908.5518068,N,09622.1012544,W,1,17,0.63,333.1928,M,-28.2909,M,,*62
    312696, $GNGSA,M,3,10,08,21,14,31,11,24,20,27,32,,,1.14,0.63,0.95*10
    312696, $GNGSA,M,3,71,72,88,73,65,86,87,,,,,,1.14,0.63,0.95*18
    312696, $GPZDA,000512.00,31,08,2019,00,00*60
    312696, $GNVTG,295.664,T,,M,2.2575,N,4.1809,K,A*1A
    313697, $GPGGA,000513.00,3908.5518848,N,09622.1020852,W,1,17,0.63,333.5598,M,-28.2909,M,,*61
    313697, $GNGSA,M,3,10,08,21,14,31,11,24,20,27,32,,,1.14,0.63,0.95*10
    313697, $GNGSA,M,3,71,72,88,73,65,86,87,,,,,,1.14,0.63,0.95*18
    313697, $GPZDA,000513.00,31,08,2019,00,00*61
    313697, $GNVTG,276.340,T,,M,2.1645,N,4.0087,K,A*18
    314696, $GPGGA,000514.00,3908.5520119,N,09622.1028766,W,1,17,0.63,333.1212,M,-28.2909,M,,*61
    314696, $GNGSA,M,3,10,08,21,14,31,11,24,20,27,32,,,1.14,0.63,0.95*10
    314696, $GNGSA,M,3,71,72,88,73,65,86,87,,,,,,1.14,0.63,0.95*18
    314696, $GPZDA,000514.00,31,08,2019,00,00*66
    314696, $GNVTG,271.634,T,,M,2.4199,N,4.4817,K,A*1F
    315696, $GPGGA,000515.00,3908.5521712,N,09622.1037158,W,1,14,0.67,332.5228,M,-28.2909,M,,*62
    315696, $GNGSA,M,3,10,08,21,14,31,11,24,20,32,,,,1.22,0.67,1.01*18
    315696, $GNGSA,M,3,71,73,65,86,87,,,,,,,,1.22,0.67,1.01*10
    315696, $GPZDA,000515.00,31,08,2019,00,00*67
    315696, $GNVTG,279.050,T,,M,1.5507,N,2.8720,K,A*13
    316697, $GPGGA,000516.00,3908.5521349,N,09622.1038675,W,1,16,0.62,332.7679,M,-28.2908,M,,*68
    316697, $GNGSA,M,3,10,08,21,14,31,11,24,20,32,,,,1.16,0.62,0.98*1B
    316697, $GNGSA,M,3,71,88,73,75,65,86,87,,,,,,1.16,0.62,0.98*11
    316697, $GPZDA,000516.00,31,08,2019,00,00*64
    316697, $GNVTG,324.785,T,,M,1.1140,N,2.0631,K,A*1F
    317696, $GPGGA,000517.00,3908.5520744,N,09622.1037251,W,1,17,0.62,332.7576,M,-28.2908,M,,*61
    317696, $GNGSA,M,3,10,08,21,14,31,11,24,20,32,,,,1.13,0.62,0.95*13
    317696, $GNGSA,M,3,71,72,88,73,75,65,86,87,,,,,1.13,0.62,0.95*1C
    317696, $GPZDA,000517.00,31,08,2019,00,00*65
    317696, $GNVTG,184.099,T,,M,0.8942,N,1.6560,K,A*1D
    318696, $GPGGA,000518.00,3908.5517440,N,09622.1032305,W,1,16,0.70,332.9010,M,-28.2908,M,,*61
    318696, $GNGSA,M,3,10,08,21,14,31,24,20,32,,,,,1.37,0.70,1.18*12
    318696, $GNGSA,M,3,71,72,88,73,75,65,86,87,,,,,1.37,0.70,1.18*1D
    318696, $GPZDA,000518.00,31,08,2019,00,00*6A
    318696, $GNVTG,140.632,T,,M,1.9407,N,3.5941,K,A*10
    319696, $GPGGA,000519.00,3908.5514233,N,09622.1026814,W,1,15,0.68,333.2626,M,-28.2908,M,,*6C
    319696, $GNGSA,M,3,10,08,21,14,11,24,20,32,,,,,1.22,0.68,1.02*16
    319696, $GNGSA,M,3,71,72,88,73,75,65,87,,,,,,1.22,0.68,1.02*15
    319696, $GPZDA,000519.00,31,08,2019,00,00*6B
    319696, $GNVTG,139.535,T,,M,2.5950,N,4.8060,K,A*1A
    320696, $GPGGA,000520.00,3908.5509820,N,09622.1020190,W,1,16,0.65,332.8884,M,-28.2908,M,,*62
    320696, $GNGSA,M,3,10,08,21,14,11,24,20,32,,,,,1.15,0.65,0.94*11
    320696, $GNGSA,M,3,71,81,72,88,73,75,65,87,,,,,1.15,0.65,0.94*1B
    320696, $GPZDA,000520.00,31,08,2019,00,00*61
    320696, $GNVTG,142.301,T,,M,2.4787,N,4.5905,K,A*15
    321696, $GPGGA,000521.00,3908.5505172,N,09622.1013277,W,1,15,0.67,332.7741,M,-28.2908,M,,*63
    321696, $GNGSA,M,3,10,08,21,14,11,24,20,32,,,,,1.16,0.67,0.95*11
    321696, $GNGSA,M,3,71,81,72,73,75,65,87,,,,,,1.16,0.67,0.95*1B
    321696, $GPZDA,000521.00,31,08,2019,00,00*60
    321696, $GNVTG,134.579,T,,M,2.4716,N,4.5773,K,A*1A
    322696, $GPGGA,000522.00,3908.5500010,N,09622.1006020,W,1,15,0.67,332.5991,M,-28.2908,M,,*65
    322696, $GNGSA,M,3,10,08,21,14,11,24,20,32,,,,,1.16,0.67,0.95*11
    322696, $GNGSA,M,3,71,81,72,73,75,65,87,,,,,,1.16,0.67,0.95*1B
    322696, $GPZDA,000522.00,31,08,2019,00,00*63
    322696, $GNVTG,130.132,T,,M,2.7065,N,5.0124,K,A*15
    323697, $GPGGA,000523.00,3908.5497066,N,09622.0997801,W,1,15,0.67,333.1180,M,-28.2908,M,,*6C
    323697, $GNGSA,M,3,10,08,21,14,11,24,20,27,32,,,,1.17,0.67,0.95*15
    323697, $GNGSA,M,3,71,81,72,73,75,87,,,,,,,1.17,0.67,0.95*19
    323697, $GPZDA,000523.00,31,08,2019,00,00*62
    323697, $GNVTG,124.491,T,,M,2.7907,N,5.1683,K,A*1A
    324696, $GPGGA,000524.00,3908.5493301,N,09622.0991125,W,1,16,0.65,332.9254,M,-28.2908,M,,*66
    324696, $GNGSA,M,3,10,08,21,14,18,11,24,20,27,32,,,1.16,0.65,0.96*1C
    324696, $GNGSA,M,3,71,72,73,75,65,87,,,,,,,1.16,0.65,0.96*13
    324696, $GPZDA,000524.00,31,08,2019,00,00*65
    324696, $GNVTG,123.290,T,,M,2.6600,N,4.9264,K,A*17
    325696, $GPGGA,000525.00,3908.5488520,N,09622.0983936,W,1,16,0.65,332.6933,M,-28.2908,M,,*64
    325696, $GNGSA,M,3,10,08,21,14,18,11,24,20,27,32,,,1.16,0.65,0.96*1C
    325696, $GNGSA,M,3,71,72,73,75,65,87,,,,,,,1.16,0.65,0.96*13
    325696, $GPZDA,000525.00,31,08,2019,00,00*64
    325696, $GNVTG,128.885,T,,M,2.2245,N,4.1198,K,A*1B
    326696, $GPGGA,000526.00,3908.5486083,N,09622.0977551,W,1,15,0.67,333.0425,M,-28.2909,M,,*6E
    326696, $GNGSA,M,3,10,08,21,14,18,11,24,20,27,32,,,1.21,0.67,1.01*15
    326696, $GNGSA,M,3,71,73,75,65,87,,,,,,,,1.21,0.67,1.01*1F
    326696, $GPZDA,000526.00,31,08,2019,00,00*67
    326696, $GNVTG,126.328,T,,M,2.4483,N,4.5342,K,A*12
    327696, $GPGGA,000527.00,3908.5481154,N,09622.0969217,W,1,16,0.65,332.7400,M,-28.2909,M,,*69
    327696, $GNGSA,M,3,10,08,21,14,18,11,24,20,27,32,,,1.16,0.65,0.96*1C
    327696, $GNGSA,M,3,71,72,73,75,65,87,,,,,,,1.16,0.65,0.96*13
    327696, $GPZDA,000527.00,31,08,2019,00,00*66
    327696, $GNVTG,137.245,T,,M,2.7327,N,5.0610,K,A*14
    328695, $GPGGA,000528.00,3908.5477442,N,09622.0962526,W,1,15,0.75,332.7044,M,-28.2909,M,,*65
    328695, $GNGSA,M,3,10,08,21,14,18,11,24,20,27,32,,,1.30,0.75,1.07*10
    328695, $GNGSA,M,3,71,72,73,65,87,,,,,,,,1.30,0.75,1.07*1D
    328695, $GPZDA,000528.00,31,08,2019,00,00*69
    328695, $GNVTG,132.431,T,,M,2.4027,N,4.4499,K,A*12
    329696, $GPGGA,000529.00,3908.5472876,N,09622.0954636,W,1,15,0.75,332.7102,M,-28.2909,M,,*6E
    329696, $GNGSA,M,3,10,08,21,14,18,11,24,20,27,32,,,1.30,0.75,1.07*10
    329696, $GNGSA,M,3,71,72,73,65,87,,,,,,,,1.30,0.75,1.07*1D
    329696, $GPZDA,000529.00,31,08,2019,00,00*68
    329696, $GNVTG,125.269,T,,M,2.7330,N,5.0615,K,A*1A
    330697, $GPGGA,000530.00,3908.5468269,N,09622.0946861,W,1,15,0.75,332.5420,M,-28.2909,M,,*61
    330697, $GNGSA,M,3,10,08,21,14,18,11,24,20,27,32,,,1.30,0.75,1.07*10
    330697, $GNGSA,M,3,71,72,73,65,87,,,,,,,,1.30,0.75,1.07*1D
    330697, $GPZDA,000530.00,31,08,2019,00,00*60
    330697, $GNVTG,122.300,T,,M,2.9845,N,5.5272,K,A*14
    331696, $GPGGA,000531.00,3908.5463907,N,09622.0939226,W,1,15,0.75,332.4419,M,-28.2909,M,,*62
    331696, $GNGSA,M,3,10,08,21,14,18,11,24,20,27,32,,,1.30,0.75,1.07*10
    331696, $GNGSA,M,3,71,72,73,65,87,,,,,,,,1.30,0.75,1.07*1D
    331696, $GPZDA,000531.00,31,08,2019,00,00*61
    331696, $GNVTG,110.395,T,,M,2.7671,N,5.1247,K,A*1C
    332696, $GPGGA,000532.00,3908.5459802,N,09622.0931763,W,1,15,0.75,332.4591,M,-28.2909,M,,*61
    332696, $GNGSA,M,3,10,08,21,14,18,11,24,20,27,32,,,1.30,0.75,1.07*10
    332696, $GNGSA,M,3,71,72,73,65,87,,,,,,,,1.30,0.75,1.07*1D
    332696, $GPZDA,000532.00,31,08,2019,00,00*62
    332696, $GNVTG,120.568,T,,M,2.6576,N,4.9219,K,A*1C
    333696, $GPGGA,000533.00,3908.5455995,N,09622.0925244,W,1,15,0.75,332.6610,M,-28.2909,M,,*6E
    333696, $GNGSA,M,3,10,08,21,14,18,11,24,20,27,32,,,1.30,0.75,1.07*10
    333696, $GNGSA,M,3,71,72,73,65,87,,,,,,,,1.30,0.75,1.07*1D
    333696, $GPZDA,000533.00,31,08,2019,00,00*63
    333696, $GNVTG,121.323,T,,M,2.3791,N,4.4060,K,A*1B
    334696, $GPGGA,000534.00,3908.5452258,N,09622.0917343,W,1,15,0.75,332.6250,M,-28.2909,M,,*63
    334696, $GNGSA,M,3,10,08,21,14,18,11,24,20,27,32,,,1.30,0.75,1.07*10
    334696, $GNGSA,M,3,71,72,73,65,87,,,,,,,,1.30,0.75,1.07*1D
    334696, $GPZDA,000534.00,31,08,2019,00,00*64
    334696, $GNVTG,124.974,T,,M,2.5574,N,4.7363,K,A*1A
    335697, $GPGGA,000535.00,3908.5444493,N,09622.0910877,W,1,15,0.75,332.5351,M,-28.2909,M,,*6C
    335697, $GNGSA,M,3,10,08,21,14,18,11,24,20,27,32,,,1.30,0.75,1.07*10
    335697, $GNGSA,M,3,71,72,73,65,87,,,,,,,,1.30,0.75,1.07*1D
    335697, $GPZDA,000535.00,31,08,2019,00,00*65
    335697, $GNVTG,132.742,T,,M,2.6367,N,4.8831,K,A*12
    336695, $GPGGA,000536.00,3908.5444425,N,09622.0904968,W,1,15,0.75,332.9606,M,-28.2910,M,,*6B
    336695, $GNGSA,M,3,10,08,21,14,18,11,24,20,27,32,,,1.30,0.75,1.06*11
    336695, $GNGSA,M,3,71,72,73,65,87,,,,,,,,1.30,0.75,1.06*1C
    336695, $GPZDA,000536.00,31,08,2019,00,00*66
    336695, $GNVTG,128.090,T,,M,2.6629,N,4.9316,K,A*11
    337697, $GPGGA,000537.00,3908.5441298,N,09622.0896889,W,1,15,0.75,332.6123,M,-28.2910,M,,*64
    337697, $GNGSA,M,3,10,08,21,14,18,11,24,20,27,32,,,1.30,0.75,1.06*11
    337697, $GNGSA,M,3,71,72,73,65,87,,,,,,,,1.30,0.75,1.06*1C
    337697, $GPZDA,000537.00,31,08,2019,00,00*67
    337697, $GNVTG,117.465,T,,M,2.6645,N,4.9347,K,A*1D
    338696, $GPGGA,000538.00,3908.5437849,N,09622.0888923,W,1,15,0.75,332.3608,M,-28.2910,M,,*69
    338696, $GNGSA,M,3,10,08,21,14,18,11,24,20,27,32,,,1.30,0.75,1.06*11
    338696, $GNGSA,M,3,71,72,73,65,87,,,,,,,,1.30,0.75,1.06*1C
    338696, $GPZDA,000538.00,31,08,2019,00,00*68
    338696, $GNVTG,116.669,T,,M,2.4692,N,4.5729,K,A*1A
    339695, $GPGGA,000539.00,3908.5433940,N,09622.0881412,W,1,15,0.74,332.2098,M,-28.2910,M,,*6D
    339695, $GNGSA,M,3,10,08,21,14,18,11,24,20,27,32,,,1.30,0.74,1.06*10
    339695, $GNGSA,M,3,71,72,73,65,87,,,,,,,,1.30,0.74,1.06*1D
    339695, $GPZDA,000539.00,31,08,2019,00,00*69
    339695, $GNVTG,122.957,T,,M,2.6137,N,4.8406,K,A*16
    340696, $GPGGA,000540.00,3908.5429437,N,09622.0874269,W,1,15,0.74,332.1638,M,-28.2910,M,,*6A
    340696, $GNGSA,M,3,10,08,21,14,18,11,24,20,27,32,,,1.30,0.74,1.06*10
    340696, $GNGSA,M,3,71,72,73,65,87,,,,,,,,1.30,0.74,1.06*1D
    340696, $GPZDA,000540.00,31,08,2019,00,00*67
    340696, $GNVTG,128.549,T,,M,2.3676,N,4.3848,K,A*15
    341696, $GPGGA,000541.00,3908.5425017,N,09622.0866508,W,1,15,0.74,331.9064,M,-28.2911,M,,*67
    341696, $GNGSA,M,3,10,08,21,14,18,11,24,20,27,32,,,1.30,0.74,1.06*10
    341696, $GNGSA,M,3,71,72,73,65,87,,,,,,,,1.30,0.74,1.06*1D
    341696, $GPZDA,000541.00,31,08,2019,00,00*66
    341696, $GNVTG,139.214,T,,M,2.6466,N,4.9014,K,A*17
    342697, $GPGGA,000542.00,3908.5420128,N,09622.0859732,W,1,15,0.74,331.7404,M,-28.2911,M,,*67
    342697, $GNGSA,M,3,10,08,21,14,18,11,24,20,27,32,,,1.30,0.74,1.06*10
    342697, $GNGSA,M,3,71,72,73,65,87,,,,,,,,1.30,0.74,1.06*1D
    342697, $GPZDA,000542.00,31,08,2019,00,00*65
    342697, $GNVTG,145.798,T,,M,2.7673,N,5.1250,K,A*11
    343697, $GPGGA,000543.00,3908.5415651,N,09622.0853046,W,1,16,0.73,331.4417,M,-28.2911,M,,*62
    343697, $GNGSA,M,3,10,08,21,14,18,11,24,20,27,32,,,1.29,0.73,1.06*1F
    343697, $GNGSA,M,3,71,72,73,88,65,87,,,,,,,1.29,0.73,1.06*12
    343697, $GPZDA,000543.00,31,08,2019,00,00*64
    343697, $GNVTG,132.280,T,,M,2.5323,N,4.6898,K,A*17
    344696, $GPGGA,000544.00,3908.5410603,N,09622.0846060,W,1,16,0.73,331.4129,M,-28.2911,M,,*6F
    344696, $GNGSA,M,3,10,08,21,14,18,11,24,20,27,32,,,1.29,0.73,1.06*1F
    344696, $GNGSA,M,3,71,72,73,88,65,87,,,,,,,1.29,0.73,1.06*12
    344696, $GPZDA,000544.00,31,08,2019,00,00*63
    344696, $GNVTG,133.366,T,,M,2.5798,N,4.7779,K,A*1A
    345696, $GPGGA,000545.00,3908.5405180,N,09622.0839298,W,1,16,0.73,331.0928,M,-28.2911,M,,*66
    345696, $GNGSA,M,3,10,08,21,14,18,11,24,20,27,32,,,1.29,0.73,1.06*1F
    345696, $GNGSA,M,3,71,72,73,88,65,87,,,,,,,1.29,0.73,1.06*12
    345696, $GPZDA,000545.00,31,08,2019,00,00*62
    345696, $GNVTG,123.340,T,,M,2.3323,N,4.3194,K,A*1C
    346696, $GPGGA,000546.00,3908.5400232,N,09622.0833259,W,1,16,0.73,330.8305,M,-28.2911,M,,*61
    346696, $GNGSA,M,3,10,08,21,14,18,11,24,20,27,32,,,1.29,0.73,1.06*1F
    346696, $GNGSA,M,3,71,72,73,88,65,87,,,,,,,1.29,0.73,1.06*12
    346696, $GPZDA,000546.00,31,08,2019,00,00*61
    346696, $GNVTG,131.471,T,,M,2.2099,N,4.0927,K,A*1A
    347696, $GPGGA,000547.00,3908.5400341,N,09622.0831072,W,1,14,1.07,332.0085,M,-28.2911,M,,*6D
    347696, $GNGSA,M,3,10,08,14,18,11,24,20,32,,,,,1.71,1.07,1.33*10
    347696, $GNGSA,M,3,71,72,73,88,65,87,,,,,,,1.71,1.07,1.33*1B
    347696, $GPZDA,000547.00,31,08,2019,00,00*60
    347696, $GNVTG,166.037,T,,M,2.4482,N,4.5341,K,A*19
    348696, $GPGGA,000548.00,3908.5390849,N,09622.0831349,W,1,14,0.81,331.3782,M,-28.2911,M,,*6B
    348696, $GNGSA,M,3,10,08,21,14,18,11,24,20,32,,,,1.47,0.81,1.23*18
    348696, $GNGSA,M,3,72,73,88,65,87,,,,,,,,1.47,0.81,1.23*16
    348696, $GPZDA,000548.00,31,08,2019,00,00*6F
    348696, $GNVTG,212.711,T,,M,2.5576,N,4.7366,K,A*16
    349696, $GPGGA,000549.00,3908.5384872,N,09622.0835500,W,1,15,0.68,331.1077,M,-28.2911,M,,*61
    349696, $GNGSA,M,3,31,10,08,21,14,18,11,24,20,32,,,1.26,0.68,1.07*1C
    349696, $GNGSA,M,3,71,73,88,65,87,,,,,,,,1.26,0.68,1.07*13
    349696, $GPZDA,000549.00,31,08,2019,00,00*6E
    349696, $GNVTG,240.332,T,,M,2.4268,N,4.4944,K,A*14
    350697, $GPGGA,000550.00,3908.5382555,N,09622.0843795,W,1,17,0.62,330.1532,M,-28.2911,M,,*65
    350697, $GNGSA,M,3,31,10,08,21,14,18,11,24,20,32,,,1.14,0.62,0.96*1E
    350697, $GNGSA,M,3,71,72,73,88,65,75,87,,,,,,1.14,0.62,0.96*16
    350697, $GPZDA,000550.00,31,08,2019,00,00*66
    350697, $GNVTG,285.048,T,,M,2.4634,N,4.5622,K,A*10
    351696, $GPGGA,000551.00,3908.5385093,N,09622.0854712,W,1,17,0.62,330.2197,M,-28.2911,M,,*6D
    351696, $GNGSA,M,3,31,10,08,21,14,18,11,24,20,32,,,1.13,0.62,0.95*1A
    351696, $GNGSA,M,3,71,86,72,73,88,65,87,,,,,,1.13,0.62,0.95*1E
    351696, $GPZDA,000551.00,31,08,2019,00,00*67
    351696, $GNVTG,299.605,T,,M,2.7090,N,5.0170,K,A*1D
    352696, $GPGGA,000552.00,3908.5387898,N,09622.0860892,W,1,16,0.65,330.7730,M,-28.2911,M,,*67
    352696, $GNGSA,M,3,31,10,08,21,14,11,24,20,32,,,,1.16,0.65,0.97*13
    352696, $GNGSA,M,3,71,86,72,73,88,65,87,,,,,,1.16,0.65,0.97*1E
    352696, $GPZDA,000552.00,31,08,2019,00,00*64
    352696, $GNVTG,309.477,T,,M,2.1847,N,4.0461,K,A*12
    353696, $GPGGA,000553.00,3908.5390253,N,09622.0868573,W,1,17,0.62,331.7488,M,-28.2911,M,,*60
    353696, $GNGSA,M,3,31,10,08,21,14,18,11,24,20,32,,,1.13,0.62,0.95*1A
    353696, $GNGSA,M,3,71,86,72,73,88,65,87,,,,,,1.13,0.62,0.95*1E
    353696, $GPZDA,000553.00,31,08,2019,00,00*65
    353696, $GNVTG,315.884,T,,M,2.0406,N,3.7792,K,A*18
    354697, $GPGGA,000554.00,3908.5394790,N,09622.0874963,W,1,17,0.62,331.3521,M,-28.2911,M,,*6F
    354697, $GNGSA,M,3,31,10,08,21,14,18,11,24,20,32,,,1.13,0.62,0.95*1A
    354697, $GNGSA,M,3,71,86,72,73,88,65,87,,,,,,1.13,0.62,0.95*1E
    354697, $GPZDA,000554.00,31,08,2019,00,00*62
    354697, $GNVTG,325.015,T,,M,2.2526,N,4.1719,K,A*18
    355696, $GPGGA,000555.00,3908.5401022,N,09622.0883786,W,1,15,0.69,331.0466,M,-28.2911,M,,*6E
    355696, $GNGSA,M,3,31,10,08,21,14,18,11,24,20,32,,,1.23,0.69,1.01*1E
    355696, $GNGSA,M,3,86,72,73,88,65,,,,,,,,1.23,0.69,1.01*13
    355696, $GPZDA,000555.00,31,08,2019,00,00*63
    355696, $GNVTG,322.553,T,,M,2.7034,N,5.0068,K,A*1A
    356696, $GPGGA,000556.00,3908.5406631,N,09622.0883051,W,1,15,0.69,331.3746,M,-28.2911,M,,*61
    356696, $GNGSA,M,3,31,10,08,21,14,18,11,24,32,,,,1.28,0.69,1.08*1E
    356696, $GNGSA,M,3,71,72,73,88,65,87,,,,,,,1.28,0.69,1.08*16
    356696, $GPZDA,000556.00,31,08,2019,00,00*60
    356696, $GNVTG,322.043,T,,M,2.5001,N,4.6302,K,A*12
    357696, $GPGGA,000557.00,3908.5410164,N,09622.0888226,W,1,12,0.81,331.4599,M,-28.2910,M,,*6E
    357696, $GNGSA,M,3,31,10,21,14,11,24,32,,,,,,1.46,0.81,1.22*19
    357696, $GNGSA,M,3,72,73,88,65,87,,,,,,,,1.46,0.81,1.22*16
    357696, $GPZDA,000557.00,31,08,2019,00,00*61
    357696, $GNVTG,325.627,T,,M,2.3047,N,4.2683,K,A*1D
    358696, $GPGGA,000558.00,3908.5415985,N,09622.0893640,W,1,13,0.76,331.7009,M,-28.2910,M,,*6B
    358696, $GNGSA,M,3,31,10,08,21,14,11,24,20,32,,,,1.35,0.76,1.12*1C
    358696, $GNGSA,M,3,72,73,65,87,,,,,,,,,1.35,0.76,1.12*19
    358696, $GPZDA,000558.00,31,08,2019,00,00*6E
    358696, $GNVTG,315.634,T,,M,2.7239,N,5.0447,K,A*1A
    359696, $GPGGA,000559.00,3908.5421246,N,09622.0898264,W,1,14,0.75,331.8618,M,-28.2910,M,,*6D
    359696, $GNGSA,M,3,31,10,08,21,14,11,24,20,32,,,,1.34,0.75,1.12*1E
    359696, $GNGSA,M,3,72,73,88,65,87,,,,,,,,1.34,0.75,1.12*1B
    359696, $GPZDA,000559.00,31,08,2019,00,00*6F
    359696, $GNVTG,304.127,T,,M,2.3489,N,4.3501,K,A*17
    360696, $GPGGA,000600.00,3908.5427893,N,09622.0903244,W,1,15,0.71,331.6012,M,-28.2910,M,,*60
    360696, $GNGSA,M,3,31,10,08,21,14,18,11,24,20,32,,,1.32,0.71,1.11*16
    360696, $GNGSA,M,3,72,73,88,65,87,,,,,,,,1.32,0.71,1.11*1A
    360696, $GPZDA,000600.00,31,08,2019,00,00*60
    360696, $GNVTG,317.934,T,,M,2.0432,N,3.7840,K,A*17
    361696, $GPGGA,000601.00,3908.5431807,N,09622.0908854,W,1,15,0.71,331.4827,M,-28.2910,M,,*67
    361696, $GNGSA,M,3,31,10,08,21,14,18,11,24,20,32,,,1.32,0.71,1.11*16
    361696, $GNGSA,M,3,72,73,88,65,87,,,,,,,,1.32,0.71,1.11*1A
    361696, $GPZDA,000601.00,31,08,2019,00,00*61
    361696, $GNVTG,334.010,T,,M,2.2957,N,4.2517,K,A*18
    362696, $GPGGA,000602.00,3908.5433886,N,09622.0913693,W,1,14,0.75,331.6540,M,-28.2910,M,,*6B
    362696, $GNGSA,M,3,31,10,08,21,14,11,24,20,32,,,,1.34,0.75,1.12*1E
    362696, $GNGSA,M,3,72,73,88,65,87,,,,,,,,1.34,0.75,1.12*1B
    362696, $GPZDA,000602.00,31,08,2019,00,00*62
    362696, $GNVTG,315.809,T,,M,2.2554,N,4.1770,K,A*14
    363696, $GPGGA,000603.00,3908.5432531,N,09622.0923099,W,1,13,0.81,330.7535,M,-28.2910,M,,*6B
    363696, $GNGSA,M,3,31,10,14,18,11,24,20,32,,,,,1.43,0.81,1.18*1D
    363696, $GNGSA,M,3,72,73,88,65,87,,,,,,,,1.43,0.81,1.18*1A
    363696, $GPZDA,000603.00,31,08,2019,00,00*63
    363696, $GNVTG,302.669,T,,M,2.2529,N,4.1724,K,A*11
    364697, $GPGGA,000604.00,3908.5435921,N,09622.0929333,W,1,14,0.73,331.7262,M,-28.2910,M,,*61
    364697, $GNGSA,M,3,31,10,08,14,11,24,20,32,,,,,1.24,0.73,1.01*18
    364697, $GNGSA,M,3,86,72,73,88,65,87,,,,,,,1.24,0.73,1.01*10
    364697, $GPZDA,000604.00,31,08,2019,00,00*64
    364697, $GNVTG,302.537,T,,M,2.5326,N,4.6903,K,A*1B
    365696, $GPGGA,000605.00,3908.5441649,N,09622.0936143,W,1,14,0.73,331.6386,M,-28.2910,M,,*63
    365696, $GNGSA,M,3,31,10,08,14,11,24,20,32,,,,,1.24,0.73,1.01*18
    365696, $GNGSA,M,3,86,72,73,88,65,87,,,,,,,1.24,0.73,1.01*10
    365696, $GPZDA,000605.00,31,08,2019,00,00*65
    365696, $GNVTG,309.522,T,,M,2.7452,N,5.0841,K,A*12
    366696, $GPGGA,000606.00,3908.5448756,N,09622.0942389,W,1,14,0.79,331.5492,M,-28.2910,M,,*6A
    366696, $GNGSA,M,3,31,10,08,14,18,11,24,20,32,,,,1.39,0.79,1.14*13
    366696, $GNGSA,M,3,72,73,88,65,87,,,,,,,,1.39,0.79,1.14*1C
    366696, $GPZDA,000606.00,31,08,2019,00,00*66
    366696, $GNVTG,312.498,T,,M,2.3869,N,4.4206,K,A*14
    367696, $GPGGA,000607.00,3908.5452553,N,09622.0941965,W,1,13,0.82,331.8652,M,-28.2909,M,,*64
    367696, $GNGSA,M,3,31,10,08,14,18,11,24,32,,,,,1.43,0.82,1.16*1A
    367696, $GNGSA,M,3,72,73,88,65,87,,,,,,,,1.43,0.82,1.16*17
    367696, $GPZDA,000607.00,31,08,2019,00,00*67
    367696, $GNVTG,322.385,T,,M,1.9855,N,3.6771,K,A*1A
    368696, $GPGGA,000608.00,3908.5464683,N,09622.0953873,W,1,13,0.77,332.3021,M,-28.2909,M,,*65
    368696, $GNGSA,M,3,31,10,08,21,14,11,24,32,,,,,1.38,0.77,1.15*15
    368696, $GNGSA,M,3,72,73,88,65,87,,,,,,,,1.38,0.77,1.15*12
    368696, $GPZDA,000608.00,31,08,2019,00,00*68
    368696, $GNVTG,326.709,T,,M,2.3984,N,4.4417,K,A*1C
    369696, $GPGGA,000609.00,3908.5470547,N,09622.0962366,W,1,15,0.71,331.8706,M,-28.2909,M,,*6D
    369696, $GNGSA,M,3,31,10,08,21,14,18,11,24,20,32,,,1.32,0.71,1.11*16
    369696, $GNGSA,M,3,72,73,88,65,87,,,,,,,,1.32,0.71,1.11*1A
    369696, $GPZDA,000609.00,31,08,2019,00,00*69
    369696, $GNVTG,328.065,T,,M,2.3743,N,4.3972,K,A*13
    370696, $GPGGA,000610.00,3908.5474241,N,09622.0968319,W,1,14,0.75,331.7383,M,-28.2909,M,,*61
    370696, $GNGSA,M,3,31,10,08,21,14,18,24,20,32,,,,1.44,0.75,1.22*13
    370696, $GNGSA,M,3,72,73,88,65,87,,,,,,,,1.44,0.75,1.22*1F
    370696, $GPZDA,000610.00,31,08,2019,00,00*61
    370696, $GNVTG,300.881,T,,M,2.5086,N,4.6460,K,A*18
    371696, $GPGGA,000611.00,3908.5478227,N,09622.0975538,W,1,15,0.71,331.6052,M,-28.2909,M,,*6E
    371696, $GNGSA,M,3,31,10,08,21,14,18,11,24,20,32,,,1.32,0.71,1.11*16
    371696, $GNGSA,M,3,72,73,88,65,87,,,,,,,,1.32,0.71,1.11*1A
    371696, $GPZDA,000611.00,31,08,2019,00,00*60
    371696, $GNVTG,300.830,T,,M,2.7217,N,5.0406,K,A*1D
    372696, $GPGGA,000612.00,3908.5482194,N,09622.0982983,W,1,15,0.69,331.5265,M,-28.2909,M,,*6B
    372696, $GNGSA,M,3,31,10,08,21,14,11,24,20,32,,,,1.22,0.69,1.01*16
    372696, $GNGSA,M,3,86,72,73,88,65,87,,,,,,,1.22,0.69,1.01*1D
    372696, $GPZDA,000612.00,31,08,2019,00,00*63
    372696, $GNVTG,307.273,T,,M,2.5243,N,4.6750,K,A*13
    373694, $GPGGA,000613.00,3908.5486691,N,09622.0989048,W,1,15,0.69,331.7068,M,-28.2909,M,,*64
    373694, $GNGSA,M,3,31,10,08,21,14,11,24,20,32,,,,1.22,0.69,1.01*16
    373694, $GNGSA,M,3,86,72,73,88,65,87,,,,,,,1.22,0.69,1.01*1D
    373694, $GPZDA,000613.00,31,08,2019,00,00*62
    373694, $GNVTG,312.047,T,,M,2.3740,N,4.3967,K,A*1D
    374696, $GPGGA,000614.00,3908.5494013,N,09622.0993560,W,1,17,0.65,332.1257,M,-28.2909,M,,*6D
    374696, $GNGSA,M,3,31,10,08,21,14,18,11,24,27,20,32,,1.17,0.65,0.97*1E
    374696, $GNGSA,M,3,86,72,73,88,65,87,,,,,,,1.17,0.65,0.97*19
    374696, $GPZDA,000614.00,31,08,2019,00,00*65
    374696, $GNVTG,327.375,T,,M,2.0186,N,3.7385,K,A*13
    375696, $GPGGA,000615.00,3908.5498725,N,09622.0999460,W,1,17,0.65,332.4255,M,-28.2909,M,,*6E
    375696, $GNGSA,M,3,31,10,08,21,14,18,11,24,27,20,32,,1.17,0.65,0.97*1E
    375696, $GNGSA,M,3,86,72,73,88,65,87,,,,,,,1.17,0.65,0.97*19
    375696, $GPZDA,000615.00,31,08,2019,00,00*64
    375696, $GNVTG,315.391,T,,M,2.4852,N,4.6025,K,A*13
    376695, $GPGGA,000616.00,3908.5503037,N,09622.1006990,W,1,16,0.69,332.5430,M,-28.2909,M,,*6F
    376695, $GNGSA,M,3,31,10,08,14,18,11,24,27,20,32,,,1.19,0.69,0.98*10
    376695, $GNGSA,M,3,86,72,73,88,65,87,,,,,,,1.19,0.69,0.98*14
    376695, $GPZDA,000616.00,31,08,2019,00,00*67
    376695, $GNVTG,311.085,T,,M,2.9202,N,5.4082,K,A*1D
    377695, $GPGGA,000617.00,3908.5507262,N,09622.1015817,W,1,16,0.68,332.8636,M,-28.2908,M,,*6D
    377695, $GNGSA,M,3,31,10,08,21,14,18,11,24,27,20,32,,1.21,0.68,1.01*18
    377695, $GNGSA,M,3,86,72,73,88,65,,,,,,,,1.21,0.68,1.01*10
    377695, $GPZDA,000617.00,31,08,2019,00,00*66
    377695, $GNVTG,299.239,T,,M,2.3593,N,4.3694,K,A*1B
    378696, $GPGGA,000618.00,3908.5506808,N,09622.1026898,W,1,13,0.77,332.4894,M,-28.2908,M,,*63
    378696, $GNGSA,M,3,31,10,14,11,24,20,32,,,,,,1.31,0.77,1.07*16
    378696, $GNGSA,M,3,86,72,73,88,65,87,,,,,,,1.31,0.77,1.07*16
    378696, $GPZDA,000618.00,31,08,2019,00,00*69
    378696, $GNVTG,297.332,T,,M,2.7875,N,5.1624,K,A*16
    379696, $GPGGA,000619.00,3908.5518451,N,09622.1035981,W,1,16,0.67,332.7075,M,-28.2908,M,,*66
    379696, $GNGSA,M,3,31,10,21,14,18,11,24,27,20,32,,,1.20,0.67,1.00*1F
    379696, $GNGSA,M,3,86,72,73,88,65,87,,,,,,,1.20,0.67,1.00*10
    379696, $GPZDA,000619.00,31,08,2019,00,00*68
    379696, $GNVTG,300.779,T,,M,2.2927,N,4.2461,K,A*10
    380696, $GPGGA,000620.00,3908.5520530,N,09622.1044072,W,1,15,0.69,331.8244,M,-28.2908,M,,*63
    380696, $GNGSA,M,3,31,10,21,14,18,11,24,20,32,,,,1.23,0.69,1.02*15
    380696, $GNGSA,M,3,86,72,73,88,65,87,,,,,,,1.23,0.69,1.02*1F
    380696, $GPZDA,000620.00,31,08,2019,00,00*62
    380696, $GNVTG,294.726,T,,M,2.0546,N,3.8052,K,A*16
    381695, $GPGGA,000621.00,3908.5525188,N,09622.1049290,W,1,17,0.64,332.3106,M,-28.2908,M,,*61
    381695, $GNGSA,M,3,31,10,21,14,18,11,24,27,20,32,,,1.11,0.64,0.91*17
    381695, $GNGSA,M,3,86,72,81,73,88,65,87,,,,,,1.11,0.64,0.91*11
    381695, $GPZDA,000621.00,31,08,2019,00,00*63
    381695, $GNVTG,318.190,T,,M,1.4446,N,2.6754,K,A*10
    382696, $GPGGA,000622.00,3908.5522554,N,09622.1059079,W,1,14,0.71,332.6572,M,-28.2908,M,,*61
    382696, $GNGSA,M,3,31,10,21,18,11,24,20,32,,,,,1.21,0.71,0.99*18
    382696, $GNGSA,M,3,86,81,73,88,65,87,,,,,,,1.21,0.71,0.99*1B
    382696, $GPZDA,000622.00,31,08,2019,00,00*60
    382696, $GNVTG,212.761,T,,M,0.4976,N,0.9216,K,A*12
    383696, $GPGGA,000623.00,3908.5521704,N,09622.1053610,W,1,16,0.65,332.6253,M,-28.2908,M,,*64
    383696, $GNGSA,M,3,31,10,21,14,18,11,24,27,20,32,,,1.14,0.65,0.94*16
    383696, $GNGSA,M,3,86,81,73,88,65,87,,,,,,,1.14,0.65,0.94*15
    383696, $GPZDA,000623.00,31,08,2019,00,00*61
    383696, $GNVTG,197.769,T,,M,1.3085,N,2.4233,K,A*1F
    384697, $GPGGA,000624.00,3908.5516289,N,09622.1051856,W,1,17,0.62,332.7813,M,-28.2908,M,,*60
    384697, $GNGSA,M,3,31,10,21,14,18,11,24,27,20,32,,,1.11,0.62,0.92*12
    384697, $GNGSA,M,3,86,81,73,88,65,75,87,,,,,,1.11,0.62,0.92*13
    384697, $GPZDA,000624.00,31,08,2019,00,00*66
    384697, $GNVTG,145.046,T,,M,1.8809,N,3.4835,K,A*10
    385696, $GPGGA,000625.00,3908.5513343,N,09622.1045633,W,1,16,0.62,333.8508,M,-28.2908,M,,*63
    385696, $GNGSA,M,3,10,08,21,14,18,11,24,20,32,,,,1.16,0.62,0.99*11
    385696, $GNGSA,M,3,86,81,73,88,75,71,87,,,,,,1.16,0.62,0.99*1A
    385696, $GPZDA,000625.00,31,08,2019,00,00*67
    385696, $GNVTG,146.417,T,,M,2.3435,N,4.3401,K,A*13
    386695, $GPGGA,000626.00,3908.5508851,N,09622.1037962,W,1,14,0.79,333.7548,M,-28.2908,M,,*6F
    386695, $GNGSA,M,3,10,08,21,14,11,24,20,32,,,,,1.34,0.79,1.07*14
    386695, $GNGSA,M,3,72,81,73,65,71,87,,,,,,,1.34,0.79,1.07*1C
    386695, $GPZDA,000626.00,31,08,2019,00,00*64
    386695, $GNVTG,140.025,T,,M,2.6730,N,4.9504,K,A*1D
    387696, $GPGGA,000627.00,3908.5501690,N,09622.1029430,W,1,15,0.77,333.4830,M,-28.2908,M,,*6F
    387696, $GNGSA,M,3,10,08,21,14,18,11,24,20,32,,,,1.32,0.77,1.07*15
    387696, $GNGSA,M,3,72,81,73,65,71,87,,,,,,,1.32,0.77,1.07*14
    387696, $GPZDA,000627.00,31,08,2019,00,00*65
    387696, $GNVTG,146.561,T,,M,2.7173,N,5.0324,K,A*12
    388694, $GPGGA,000628.00,3908.5495354,N,09622.1022175,W,1,15,0.76,332.8456,M,-28.2908,M,,*6E
    388694, $GNGSA,M,3,10,08,21,14,11,24,27,20,32,,,,1.26,0.76,1.01*1B
    388694, $GNGSA,M,3,72,81,73,65,71,87,,,,,,,1.26,0.76,1.01*16
    388694, $GPZDA,000628.00,31,08,2019,00,00*6A
    388694, $GNVTG,133.563,T,,M,2.5975,N,4.8107,K,A*14
    389696, $GPGGA,000629.00,3908.5489734,N,09622.1012739,W,1,15,0.76,332.7372,M,-28.2908,M,,*63
    389696, $GNGSA,M,3,10,08,21,14,11,24,27,20,32,,,,1.26,0.76,1.01*1B
    389696, $GNGSA,M,3,72,81,73,65,71,87,,,,,,,1.26,0.76,1.01*16
    389696, $GPZDA,000629.00,31,08,2019,00,00*6B
    389696, $GNVTG,128.427,T,,M,2.8140,N,5.2115,K,A*14
    390695, $GPGGA,000630.00,3908.5483983,N,09622.1004065,W,1,14,0.77,332.5603,M,-28.2908,M,,*6B
    390695, $GNGSA,M,3,10,08,21,14,18,11,24,27,20,32,,,1.33,0.77,1.08*1E
    390695, $GNGSA,M,3,72,73,71,87,,,,,,,,,1.33,0.77,1.08*10
    390695, $GPZDA,000630.00,31,08,2019,00,00*63
    390695, $GNVTG,128.225,T,,M,2.6884,N,4.9789,K,A*16
    391696, $GPGGA,000631.00,3908.5479060,N,09622.0996338,W,1,15,0.74,332.3825,M,-28.2908,M,,*6D
    391696, $GNGSA,M,3,10,08,21,14,18,11,24,27,20,32,,,1.29,0.74,1.06*18
    391696, $GNGSA,M,3,72,73,65,71,87,,,,,,,,1.29,0.74,1.06*15
    391696, $GPZDA,000631.00,31,08,2019,00,00*62
    391696, $GNVTG,118.715,T,,M,2.5462,N,4.7156,K,A*1E
    392695, $GPGGA,000632.00,3908.5474277,N,09622.0988063,W,1,15,0.74,332.4513,M,-28.2909,M,,*6B
    392695, $GNGSA,M,3,10,08,21,14,18,11,24,27,20,32,,,1.29,0.74,1.06*18
    392695, $GNGSA,M,3,72,73,65,71,87,,,,,,,,1.29,0.74,1.06*15
    392695, $GPZDA,000632.00,31,08,2019,00,00*61
    392695, $GNVTG,126.787,T,,M,2.4449,N,4.5279,K,A*1C
    393695, $GPGGA,000633.00,3908.5469344,N,09622.0979668,W,1,15,0.74,332.4400,M,-28.2909,M,,*67
    393695, $GNGSA,M,3,10,08,21,14,18,11,24,27,20,32,,,1.29,0.74,1.06*18
    393695, $GNGSA,M,3,72,73,65,71,87,,,,,,,,1.29,0.74,1.06*15
    393695, $GPZDA,000633.00,31,08,2019,00,00*60
    393695, $GNVTG,131.644,T,,M,2.8012,N,5.1878,K,A*1C
    394696, $GPGGA,000634.00,3908.5464885,N,09622.0971228,W,1,15,0.74,332.2692,M,-28.2909,M,,*6C
    394696, $GNGSA,M,3,10,08,21,14,18,11,24,27,20,32,,,1.29,0.74,1.06*18
    394696, $GNGSA,M,3,72,73,65,71,87,,,,,,,,1.29,0.74,1.06*15
    394696, $GPZDA,000634.00,31,08,2019,00,00*67
    394696, $GNVTG,130.054,T,,M,3.2032,N,5.9323,K,A*1E
    395695, $GPGGA,000635.00,3908.5460674,N,09622.0962767,W,1,15,0.74,332.1072,M,-28.2909,M,,*6E
    395695, $GNGSA,M,3,10,08,21,14,18,11,24,27,20,32,,,1.29,0.74,1.06*18
    395695, $GNGSA,M,3,72,73,65,71,87,,,,,,,,1.29,0.74,1.06*15
    395695, $GPZDA,000635.00,31,08,2019,00,00*66
    395695, $GNVTG,129.489,T,,M,2.4753,N,4.5842,K,A*14
    396695, $GPGGA,000636.00,3908.5456143,N,09622.0954393,W,1,15,0.74,332.1108,M,-28.2909,M,,*6D
    396695, $GNGSA,M,3,10,08,21,14,18,11,24,27,20,32,,,1.29,0.74,1.06*18
    396695, $GNGSA,M,3,72,73,65,71,87,,,,,,,,1.29,0.74,1.06*15
    396695, $GPZDA,000636.00,31,08,2019,00,00*65
    396695, $GNVTG,124.890,T,,M,2.5740,N,4.7670,K,A*13
    397695, $GPGGA,000637.00,3908.5451707,N,09622.0945872,W,1,14,0.77,331.8376,M,-28.2909,M,,*6A
    397695, $GNGSA,M,3,10,08,21,14,18,11,24,27,20,32,,,1.33,0.77,1.08*1E
    397695, $GNGSA,M,3,72,73,71,87,,,,,,,,,1.33,0.77,1.08*10
    397695, $GPZDA,000637.00,31,08,2019,00,00*64
    397695, $GNVTG,116.673,T,,M,2.8790,N,5.3320,K,A*14
    398696, $GPGGA,000638.00,3908.5447713,N,09622.0938365,W,1,15,0.74,331.8544,M,-28.2909,M,,*65
    398696, $GNGSA,M,3,10,08,21,14,18,11,24,27,20,32,,,1.29,0.74,1.06*18
    398696, $GNGSA,M,3,72,73,65,71,87,,,,,,,,1.29,0.74,1.06*15
    398696, $GPZDA,000638.00,31,08,2019,00,00*6B
    398696, $GNVTG,115.771,T,,M,2.7862,N,5.1600,K,A*1C
    399696, $GPGGA,000639.00,3908.5443500,N,09622.0930281,W,1,15,0.74,331.7801,M,-28.2909,M,,*60
    399696, $GNGSA,M,3,10,08,21,14,18,11,24,27,20,32,,,1.29,0.74,1.06*18
    399696, $GNGSA,M,3,72,73,65,71,87,,,,,,,,1.29,0.74,1.06*15
    399696, $GPZDA,000639.00,31,08,2019,00,00*6A
    399696, $GNVTG,118.143,T,,M,2.7966,N,5.1794,K,A*1F
    400695, $GPGGA,000640.00,3908.5439169,N,09622.0922165,W,1,15,0.74,331.7042,M,-28.2909,M,,*6D
    400695, $GNGSA,M,3,10,08,21,14,18,11,24,27,20,32,,,1.29,0.74,1.06*18
    400695, $GNGSA,M,3,72,73,65,71,87,,,,,,,,1.29,0.74,1.06*15
    400695, $GPZDA,000640.00,31,08,2019,00,00*64
    400695, $GNVTG,123.119,T,,M,2.5302,N,4.6859,K,A*1A
    401696, $GPGGA,000641.00,3908.5435081,N,09622.0913826,W,1,15,0.74,331.4739,M,-28.2909,M,,*63
    401696, $GNGSA,M,3,10,08,21,14,18,11,24,27,20,32,,,1.29,0.74,1.06*18
    401696, $GNGSA,M,3,72,73,65,71,87,,,,,,,,1.29,0.74,1.06*15
    401696, $GPZDA,000641.00,31,08,2019,00,00*65
    401696, $GNVTG,130.605,T,,M,3.0214,N,5.5956,K,A*1C
    402695, $GPGGA,000642.00,3908.5431718,N,09622.0906056,W,1,15,0.74,331.5097,M,-28.2910,M,,*62
    402695, $GNGSA,M,3,10,08,21,14,18,11,24,27,20,32,,,1.29,0.74,1.06*18
    402695, $GNGSA,M,3,72,73,65,71,87,,,,,,,,1.29,0.74,1.06*15
    402695, $GPZDA,000642.00,31,08,2019,00,00*66
    402695, $GNVTG,134.454,T,,M,3.0194,N,5.5920,K,A*14
    403694, $GPGGA,000643.00,3908.5427024,N,09622.0896907,W,1,15,0.74,331.3261,M,-28.2910,M,,*64
    403694, $GNGSA,M,3,10,08,21,14,18,11,24,27,20,32,,,1.29,0.74,1.06*18
    403694, $GNGSA,M,3,72,73,65,71,87,,,,,,,,1.29,0.74,1.06*15
    403694, $GPZDA,000643.00,31,08,2019,00,00*67
    403694, $GNVTG,128.216,T,,M,2.7615,N,5.1143,K,A*18
    404695, $GPGGA,000644.00,3908.5422034,N,09622.0888321,W,1,15,0.74,331.5087,M,-28.2910,M,,*6A
    404695, $GNGSA,M,3,10,08,21,14,18,11,24,27,20,32,,,1.29,0.74,1.06*18
    404695, $GNGSA,M,3,72,73,65,71,87,,,,,,,,1.29,0.74,1.06*15
    404695, $GPZDA,000644.00,31,08,2019,00,00*60
    404695, $GNVTG,131.293,T,,M,2.6807,N,4.9647,K,A*1B
    405696, $GPGGA,000645.00,3908.5417834,N,09622.0880813,W,1,15,0.74,331.6291,M,-28.2910,M,,*61
    405696, $GNGSA,M,3,10,08,21,14,18,11,24,27,20,32,,,1.29,0.74,1.06*18
    405696, $GNGSA,M,3,72,73,65,71,87,,,,,,,,1.29,0.74,1.06*15
    405696, $GPZDA,000645.00,31,08,2019,00,00*61
    405696, $GNVTG,119.552,T,,M,3.0044,N,5.5642,K,A*1B
    406696, $GPGGA,000646.00,3908.5413431,N,09622.0873246,W,1,15,0.74,331.4957,M,-28.2910,M,,*6A
    406696, $GNGSA,M,3,10,08,21,14,18,11,24,27,20,32,,,1.29,0.74,1.06*18
    406696, $GNGSA,M,3,72,73,65,71,87,,,,,,,,1.29,0.74,1.06*15
    406696, $GPZDA,000646.00,31,08,2019,00,00*62
    406696, $GNVTG,119.589,T,,M,3.0569,N,5.6613,K,A*10
    407694, $GPGGA,000647.00,3908.5409322,N,09622.0865638,W,1,15,0.74,331.4925,M,-28.2911,M,,*6B
    407694, $GNGSA,M,3,10,08,21,14,18,11,24,27,20,32,,,1.29,0.74,1.06*18
    407694, $GNGSA,M,3,72,73,65,71,87,,,,,,,,1.29,0.74,1.06*15
    407694, $GPZDA,000647.00,31,08,2019,00,00*63
    407694, $GNVTG,119.776,T,,M,2.7084,N,5.0160,K,A*17
    408694, $GPGGA,000648.00,3908.5405222,N,09622.0857774,W,1,15,0.74,331.4474,M,-28.2911,M,,*68
    408694, $GNGSA,M,3,10,08,21,14,18,11,24,27,20,32,,,1.29,0.74,1.06*18
    408694, $GNGSA,M,3,72,73,65,71,87,,,,,,,,1.29,0.74,1.06*15
    408694, $GPZDA,000648.00,31,08,2019,00,00*6C
    408694, $GNVTG,127.327,T,,M,2.6274,N,4.8660,K,A*18
    409695, $GPGGA,000649.00,3908.5400348,N,09622.0850572,W,1,14,0.77,331.2219,M,-28.2911,M,,*6B
    409695, $GNGSA,M,3,10,08,21,14,18,11,24,27,20,32,,,1.33,0.77,1.08*1E
    409695, $GNGSA,M,3,72,73,71,87,,,,,,,,,1.33,0.77,1.08*10
    409695, $GPZDA,000649.00,31,08,2019,00,00*6D
    409695, $GNVTG,143.293,T,,M,2.7261,N,5.0488,K,A*1C
    410695, $GPGGA,000650.00,3908.5395401,N,09622.0845000,W,1,15,0.74,331.0741,M,-28.2911,M,,*6E
    410695, $GNGSA,M,3,10,08,21,14,18,11,24,27,20,32,,,1.29,0.74,1.06*18
    410695, $GNGSA,M,3,72,73,65,71,87,,,,,,,,1.29,0.74,1.06*15
    410695, $GPZDA,000650.00,31,08,2019,00,00*65
    410695, $GNVTG,153.981,T,,M,2.5729,N,4.7650,K,A*1F
    411695, $GPGGA,000651.00,3908.5388073,N,09622.0841855,W,1,15,0.74,331.1323,M,-28.2911,M,,*6F
    411695, $GNGSA,M,3,10,08,21,14,18,11,24,27,20,32,,,1.29,0.74,1.06*18
    411695, $GNGSA,M,3,72,73,65,71,87,,,,,,,,1.29,0.74,1.06*15
