
   1533690, $GPGGA,002533.00,3908.5447550,N,09622.0744305,W,1,16,0.65,331.7952,M,-28.2913,M,,*65
   1533690, $GNGSA,M,3,10,01,14,31,21,27,11,20,18,24,32,,1.17,0.65,0.97*17
   1533690, $GNGSA,M,3,65,88,72,73,75,,,,,,,,1.17,0.65,0.97*1A
   1533690, $GPZDA,002533.00,31,08,2019,00,00*61
   1533690, $GNVTG,067.050,T,,M,0.3247,N,0.6013,K,A*11
   1534691, $GPGGA,002534.00,3908.5447111,N,09622.0742880,W,1,17,0.62,331.8165,M,-28.2913,M,,*66
   1534691, $GNGSA,M,3,10,01,14,31,21,27,11,20,18,24,32,,1.15,0.62,0.97*12
   1534691, $GNGSA,M,3,65,87,88,72,73,75,,,,,,,1.15,0.62,0.97*10
   1534691, $GPZDA,002534.00,31,08,2019,00,00*66
   1534691, $GNVTG,040.754,T,,M,0.9469,N,1.7537,K,A*14
   1535691, $GPGGA,002535.00,3908.5449430,N,09622.0746118,W,1,17,0.62,331.7223,M,-28.2913,M,,*6D
   1535691, $GNGSA,M,3,10,01,14,31,21,27,11,20,18,24,32,,1.15,0.62,0.97*12
   1535691, $GNGSA,M,3,65,87,88,72,73,75,,,,,,,1.15,0.62,0.97*10
   1535691, $GPZDA,002535.00,31,08,2019,00,00*67
   1535691, $GNVTG,012.581,T,,M,1.0613,N,1.9655,K,A*17
   1536690, $GPGGA,002536.00,3908.5450927,N,09622.0749653,W,1,16,0.64,331.8186,M,-28.2913,M,,*6E
   1536690, $GNGSA,M,3,10,01,14,31,21,11,20,18,24,32,,,1.21,0.64,1.02*1B
   1536690, $GNGSA,M,3,65,87,88,72,73,75,,,,,,,1.21,0.64,1.02*1C
   1536690, $GPZDA,002536.00,31,08,2019,00,00*64
   1536690, $GNVTG,273.216,T,,M,1.1758,N,2.1775,K,A*1C
   1537690, $GPGGA,002537.00,3908.5447827,N,09622.0753393,W,1,17,0.65,331.7363,M,-28.2913,M,,*6C
   1537690, $GNGSA,M,3,10,01,14,31,21,27,11,20,18,24,32,,1.15,0.65,0.94*16
   1537690, $GNGSA,M,3,81,65,87,88,72,75,,,,,,,1.15,0.65,0.94*19
   1537690, $GPZDA,002537.00,31,08,2019,00,00*65
   1537690, $GNVTG,211.647,T,,M,1.9434,N,3.5992,K,A*1B
   1538691, $GPGGA,002538.00,3908.5441952,N,09622.0758212,W,1,17,0.65,332.0430,M,-28.2913,M,,*60
   1538691, $GNGSA,M,3,10,01,14,31,21,27,11,20,18,24,32,,1.15,0.65,0.94*16
   1538691, $GNGSA,M,3,81,65,87,88,72,75,,,,,,,1.15,0.65,0.94*19
   1538691, $GPZDA,002538.00,31,08,2019,00,00*6A
   1538691, $GNVTG,203.138,T,,M,2.2662,N,4.1970,K,A*11
   1539690, $GPGGA,002539.00,3908.5436069,N,09622.0765302,W,1,17,0.65,332.0662,M,-28.2913,M,,*6B
   1539690, $GNGSA,M,3,10,01,14,31,21,27,11,20,18,24,32,,1.15,0.65,0.94*16
   1539690, $GNGSA,M,3,81,65,87,88,72,75,,,,,,,1.15,0.65,0.94*19
   1539690, $GPZDA,002539.00,31,08,2019,00,00*6B
   1539690, $GNVTG,219.055,T,,M,2.5608,N,4.7427,K,A*12
   1540691, $GPGGA,002540.00,3908.5430457,N,09622.0773595,W,1,16,0.69,332.0793,M,-28.2913,M,,*67
   1540691, $GNGSA,M,3,10,01,14,31,21,27,11,20,18,24,32,,1.17,0.69,0.95*19
   1540691, $GNGSA,M,3,81,65,88,72,75,,,,,,,,1.17,0.69,0.95*19
   1540691, $GPZDA,002540.00,31,08,2019,00,00*65
   1540691, $GNVTG,218.491,T,,M,2.6043,N,4.8232,K,A*18
   1541691, $GPGGA,002541.00,3908.5425232,N,09622.0780641,W,1,17,0.65,331.9848,M,-28.2912,M,,*6E
   1541691, $GNGSA,M,3,10,01,14,31,21,27,11,20,18,24,32,,1.15,0.65,0.94*16
   1541691, $GNGSA,M,3,81,65,87,88,72,75,,,,,,,1.15,0.65,0.94*19
   1541691, $GPZDA,002541.00,31,08,2019,00,00*64
   1541691, $GNVTG,221.281,T,,M,2.5145,N,4.6568,K,A*17
   1542690, $GPGGA,002542.00,3908.5420375,N,09622.0788360,W,1,17,0.65,331.3771,M,-28.2912,M,,*6B
   1542690, $GNGSA,M,3,10,01,14,31,21,27,11,20,18,24,32,,1.15,0.65,0.95*17
   1542690, $GNGSA,M,3,81,65,87,88,72,75,,,,,,,1.15,0.65,0.95*18
   1542690, $GPZDA,002542.00,31,08,2019,00,00*67
   1542690, $GNVTG,226.447,T,,M,2.6259,N,4.8633,K,A*12
   1543690, $GPGGA,002543.00,3908.5415265,N,09622.0795059,W,1,16,0.68,331.2140,M,-28.2912,M,,*60
   1543690, $GNGSA,M,3,10,14,31,21,27,11,20,18,24,32,,,1.22,0.68,1.01*13
   1543690, $GNGSA,M,3,81,65,87,88,72,73,,,,,,,1.22,0.68,1.01*1B
   1543690, $GPZDA,002543.00,31,08,2019,00,00*66
   1543690, $GNVTG,229.981,T,,M,2.6721,N,4.9488,K,A*13
   1544690, $GPGGA,002544.00,3908.5411230,N,09622.0803058,W,1,17,0.62,330.4765,M,-28.2912,M,,*6F
   1544690, $GNGSA,M,3,10,01,14,31,21,27,20,18,24,32,,,1.14,0.62,0.96*12
   1544690, $GNGSA,M,3,81,65,87,88,72,73,75,,,,,,1.14,0.62,0.96*19
   1544690, $GPZDA,002544.00,31,08,2019,00,00*61
   1544690, $GNVTG,233.221,T,,M,2.6200,N,4.8522,K,A*1F
   1545691, $GPGGA,002545.00,3908.5406129,N,09622.0810113,W,1,17,0.62,330.2927,M,-28.2912,M,,*61
   1545691, $GNGSA,M,3,10,01,14,31,21,27,20,18,24,32,,,1.14,0.62,0.96*12
   1545691, $GNGSA,M,3,81,65,87,88,72,73,75,,,,,,1.14,0.62,0.96*19
   1545691, $GPZDA,002545.00,31,08,2019,00,00*60
   1545691, $GNVTG,225.536,T,,M,2.6550,N,4.9170,K,A*19
   1546690, $GPGGA,002546.00,3908.5400831,N,09622.0817923,W,1,17,0.62,330.1090,M,-28.2912,M,,*6E
   1546690, $GNGSA,M,3,10,01,14,31,21,27,20,18,24,32,,,1.14,0.62,0.96*12
   1546690, $GNGSA,M,3,81,65,87,88,72,73,75,,,,,,1.14,0.62,0.96*19
   1546690, $GPZDA,002546.00,31,08,2019,00,00*63
   1546690, $GNVTG,227.721,T,,M,2.8721,N,5.3192,K,A*12
   1547691, $GPGGA,002547.00,3908.5395187,N,09622.0824617,W,1,17,0.62,329.7346,M,-28.2912,M,,*6E
   1547691, $GNGSA,M,3,10,01,14,31,21,27,20,18,24,32,,,1.14,0.62,0.96*12
   1547691, $GNGSA,M,3,81,65,87,88,72,73,75,,,,,,1.14,0.62,0.96*19
   1547691, $GPZDA,002547.00,31,08,2019,00,00*62
   1547691, $GNVTG,218.260,T,,M,2.9075,N,5.3847,K,A*18
   1548691, $GPGGA,002548.00,3908.5389904,N,09622.0831857,W,1,15,0.70,329.6764,M,-28.2912,M,,*65
   1548691, $GNGSA,M,3,10,01,14,31,21,20,18,24,32,,,,1.23,0.70,1.02*1C
   1548691, $GNGSA,M,3,81,65,88,72,73,75,,,,,,,1.23,0.70,1.02*1D
   1548691, $GPZDA,002548.00,31,08,2019,00,00*6D
   1548691, $GNVTG,219.556,T,,M,2.8624,N,5.3012,K,A*10
   1549690, $GPGGA,002549.00,3908.5383297,N,09622.0837651,W,1,16,0.68,330.4363,M,-28.2912,M,,*62
   1549690, $GNGSA,M,3,10,01,14,31,21,20,18,11,24,32,,,1.22,0.68,1.02*14
   1549690, $GNGSA,M,3,81,65,87,88,72,73,,,,,,,1.22,0.68,1.02*18
   1549690, $GPZDA,002549.00,31,08,2019,00,00*6C
   1549690, $GNVTG,224.315,T,,M,2.8446,N,5.2682,K,A*17
   1550690, $GPGGA,002550.00,3908.5377435,N,09622.0844614,W,1,16,0.68,330.6279,M,-28.2912,M,,*62
   1550690, $GNGSA,M,3,10,01,14,31,21,20,18,11,24,32,,,1.22,0.68,1.02*14
   1550690, $GNGSA,M,3,81,65,87,88,72,73,,,,,,,1.22,0.68,1.02*18
   1550690, $GPZDA,002550.00,31,08,2019,00,00*64
   1550690, $GNVTG,220.824,T,,M,2.7889,N,5.1651,K,A*17
   1551690, $GPGGA,002551.00,3908.5371936,N,09622.0851297,W,1,17,0.63,330.7083,M,-28.2911,M,,*6F
   1551690, $GNGSA,M,3,10,01,14,31,21,20,18,11,24,32,,,1.16,0.63,0.97*15
   1551690, $GNGSA,M,3,81,65,87,88,72,73,75,,,,,,1.16,0.63,0.97*1B
   1551690, $GPZDA,002551.00,31,08,2019,00,00*65
   1551690, $GNVTG,223.164,T,,M,2.6853,N,4.9732,K,A*12
   1552691, $GPGGA,002552.00,3908.5366658,N,09622.0858664,W,1,17,0.64,330.7989,M,-28.2911,M,,*68
   1552691, $GNGSA,M,3,10,01,14,31,21,20,18,11,24,32,,,1.14,0.64,0.94*13
   1552691, $GNGSA,M,3,81,65,71,88,72,73,75,,,,,,1.14,0.64,0.94*14
   1552691, $GPZDA,002552.00,31,08,2019,00,00*66
   1552691, $GNVTG,229.989,T,,M,2.5099,N,4.6484,K,A*1F
   1553690, $GPGGA,002553.00,3908.5361729,N,09622.0865762,W,1,16,0.66,330.5799,M,-28.2911,M,,*6E
   1553690, $GNGSA,M,3,10,14,31,21,20,18,11,24,32,,,,1.23,0.66,1.03*1B
   1553690, $GNGSA,M,3,81,65,71,87,88,72,73,,,,,,1.23,0.66,1.03*10
   1553690, $GPZDA,002553.00,31,08,2019,00,00*67
   1553690, $GNVTG,234.350,T,,M,3.0447,N,5.6389,K,A*15
   1554690, $GPGGA,002554.00,3908.5357240,N,09622.0873068,W,1,16,0.66,330.4515,M,-28.2911,M,,*6B
   1554690, $GNGSA,M,3,10,14,31,21,20,18,11,24,32,,,,1.23,0.66,1.03*1B
   1554690, $GNGSA,M,3,81,65,71,87,88,72,73,,,,,,1.23,0.66,1.03*10
   1554690, $GPZDA,002554.00,31,08,2019,00,00*60
   1554690, $GNVTG,240.793,T,,M,2.7880,N,5.1634,K,A*18
   1555691, $GPGGA,002555.00,3908.5352380,N,09622.0880239,W,1,16,0.66,330.3191,M,-28.2911,M,,*67
   1555691, $GNGSA,M,3,10,14,31,21,20,18,11,24,32,,,,1.23,0.66,1.03*1B
   1555691, $GNGSA,M,3,81,65,71,87,88,72,73,,,,,,1.23,0.66,1.03*10
   1555691, $GPZDA,002555.00,31,08,2019,00,00*61
   1555691, $GNVTG,236.679,T,,M,2.5546,N,4.7312,K,A*1F
   1556690, $GPGGA,002556.00,3908.5347791,N,09622.0887755,W,1,16,0.66,330.3095,M,-28.2910,M,,*68
   1556690, $GNGSA,M,3,10,14,31,21,20,18,11,24,32,,,,1.23,0.66,1.03*1B
   1556690, $GNGSA,M,3,81,65,71,87,88,72,73,,,,,,1.23,0.66,1.03*10
   1556690, $GPZDA,002556.00,31,08,2019,00,00*62
   1556690, $GNVTG,236.234,T,,M,2.8098,N,5.2038,K,A*16
   1557690, $GPGGA,002557.00,3908.5343442,N,09622.0896037,W,1,16,0.66,330.3004,M,-28.2910,M,,*6B
   1557690, $GNGSA,M,3,10,14,31,21,20,18,11,24,32,,,,1.23,0.66,1.03*1B
   1557690, $GNGSA,M,3,81,65,71,87,88,72,73,,,,,,1.23,0.66,1.03*10
   1557690, $GPZDA,002557.00,31,08,2019,00,00*63
   1557690, $GNVTG,232.594,T,,M,2.7196,N,5.0368,K,A*1B
   1558690, $GPGGA,002558.00,3908.5338952,N,09622.0904071,W,1,16,0.66,330.2229,M,-28.2910,M,,*60
   1558690, $GNGSA,M,3,10,14,31,21,20,18,11,24,32,,,,1.23,0.66,1.03*1B
   1558690, $GNGSA,M,3,81,65,71,87,88,72,73,,,,,,1.23,0.66,1.03*10
   1558690, $GPZDA,002558.00,31,08,2019,00,00*6C
   1558690, $GNVTG,228.918,T,,M,2.9431,N,5.4506,K,A*14
   1559690, $GPGGA,002559.00,3908.5334981,N,09622.0912536,W,1,16,0.66,330.1799,M,-28.2910,M,,*6F
   1559690, $GNGSA,M,3,10,14,31,21,20,18,11,24,32,,,,1.23,0.66,1.03*1B
   1559690, $GNGSA,M,3,81,65,71,87,88,72,73,,,,,,1.23,0.66,1.03*10
   1559690, $GPZDA,002559.00,31,08,2019,00,00*6D
   1559690, $GNVTG,233.221,T,,M,2.7665,N,5.1235,K,A*10
   1560690, $GPGGA,002600.00,3908.5330772,N,09622.0920778,W,1,17,0.63,330.2752,M,-28.2910,M,,*6F
   1560690, $GNGSA,M,3,10,01,14,31,21,20,18,11,24,32,,,1.15,0.63,0.96*17
   1560690, $GNGSA,M,3,81,65,71,87,88,72,73,,,,,,1.15,0.63,0.96*1D
   1560690, $GPZDA,002600.00,31,08,2019,00,00*62
   1560690, $GNVTG,230.844,T,,M,2.6508,N,4.9092,K,A*15
   1561690, $GPGGA,002601.00,3908.5326546,N,09622.0929275,W,1,17,0.63,330.3385,M,-28.2909,M,,*6A
   1561690, $GNGSA,M,3,10,01,14,31,21,20,18,11,24,32,,,1.15,0.63,0.96*17
   1561690, $GNGSA,M,3,81,65,71,87,88,72,73,,,,,,1.15,0.63,0.96*1D
   1561690, $GPZDA,002601.00,31,08,2019,00,00*63
   1561690, $GNVTG,231.138,T,,M,2.6722,N,4.9488,K,A*13
   1562693, $GPGGA,002602.00,3908.5322506,N,09622.0937715,W,1,17,0.63,330.3125,M,-28.2909,M,,*6D
   1562693, $GNGSA,M,3,10,01,14,31,21,20,18,11,24,32,,,1.15,0.63,0.96*17
   1562693, $GNGSA,M,3,81,65,71,87,88,72,73,,,,,,1.15,0.63,0.96*1D
   1562693, $GPZDA,002602.00,31,08,2019,00,00*60
   1562693, $GNVTG,240.200,T,,M,2.7765,N,5.1421,K,A*15
   1563690, $GPGGA,002603.00,3908.5319448,N,09622.0947006,W,1,17,0.63,330.2337,M,-28.2909,M,,*6D
   1563690, $GNGSA,M,3,10,01,14,31,21,20,18,11,24,32,,,1.15,0.63,0.96*17
   1563690, $GNGSA,M,3,81,65,71,87,88,72,73,,,,,,1.15,0.63,0.96*1D
   1563690, $GPZDA,002603.00,31,08,2019,00,00*61
   1563690, $GNVTG,250.132,T,,M,2.8719,N,5.3187,K,A*19
   1564690, $GPGGA,002604.00,3908.5316468,N,09622.0955152,W,1,16,0.65,330.0010,M,-28.2909,M,,*67
   1564690, $GNGSA,M,3,10,01,14,31,21,20,18,11,24,32,,,1.18,0.65,0.98*12
   1564690, $GNGSA,M,3,81,65,87,72,73,75,,,,,,,1.18,0.65,0.98*1C
   1564690, $GPZDA,002604.00,31,08,2019,00,00*66
   1564690, $GNVTG,252.656,T,,M,2.6829,N,4.9688,K,A*1F
   1565690, $GPGGA,002605.00,3908.5312789,N,09622.0964127,W,1,17,0.63,329.9674,M,-28.2909,M,,*6C
   1565690, $GNGSA,M,3,10,01,14,31,21,20,18,11,24,32,,,1.16,0.63,0.97*15
   1565690, $GNGSA,M,3,81,65,87,88,72,73,75,,,,,,1.16,0.63,0.97*1B
   1565690, $GPZDA,002605.00,31,08,2019,00,00*67
   1565690, $GNVTG,250.033,T,,M,2.6566,N,4.9201,K,A*1B
   1566690, $GPGGA,002606.00,3908.5309554,N,09622.0973278,W,1,17,0.63,329.9900,M,-28.2908,M,,*65
   1566690, $GNGSA,M,3,10,01,14,31,21,20,18,11,24,32,,,1.16,0.63,0.97*15
   1566690, $GNGSA,M,3,81,65,87,88,72,73,75,,,,,,1.16,0.63,0.97*1B
   1566690, $GPZDA,002606.00,31,08,2019,00,00*64
   1566690, $GNVTG,244.639,T,,M,2.8134,N,5.2104,K,A*13
   1567690, $GPGGA,002607.00,3908.5306700,N,09622.0982118,W,1,18,0.60,329.8067,M,-28.2908,M,,*66
   1567690, $GNGSA,M,3,10,01,14,31,21,20,18,11,24,32,,,1.11,0.60,0.94*12
   1567690, $GNGSA,M,3,81,65,71,87,88,72,73,75,,,,,1.11,0.60,0.94*1A
   1567690, $GPZDA,002607.00,31,08,2019,00,00*65
   1567690, $GNVTG,244.752,T,,M,2.6629,N,4.9317,K,A*10
   1568691, $GPGGA,002608.00,3908.5304010,N,09622.0991270,W,1,17,0.63,329.5940,M,-28.2908,M,,*6F
   1568691, $GNGSA,M,3,10,01,14,31,20,18,11,24,32,,,,1.17,0.63,0.99*19
   1568691, $GNGSA,M,3,81,65,71,87,88,72,73,75,,,,,1.17,0.63,0.99*12
   1568691, $GPZDA,002608.00,31,08,2019,00,00*6A
   1568691, $GNVTG,242.442,T,,M,2.9316,N,5.4294,K,A*14
   1569691, $GPGGA,002609.00,3908.5301790,N,09622.0999832,W,1,16,0.65,329.3722,M,-28.2908,M,,*6B
   1569691, $GNGSA,M,3,10,01,14,31,20,18,11,24,32,,,,1.20,0.65,1.00*1A
   1569691, $GNGSA,M,3,81,65,71,87,72,73,75,,,,,,1.20,0.65,1.00*11
   1569691, $GPZDA,002609.00,31,08,2019,00,00*6B
   1569691, $GNVTG,237.071,T,,M,2.8573,N,5.2917,K,A*10
   1570690, $GPGGA,002610.00,3908.5300103,N,09622.1009042,W,1,15,0.66,329.1999,M,-28.2908,M,,*6C
   1570690, $GNGSA,M,3,10,14,31,20,18,11,24,32,,,,,1.28,0.66,1.09*19
   1570690, $GNGSA,M,3,81,65,71,87,72,73,75,,,,,,1.28,0.66,1.09*13
   1570690, $GPZDA,002610.00,31,08,2019,00,00*63
   1570690, $GNVTG,255.305,T,,M,2.7551,N,5.1024,K,A*11
   1571690, $GPGGA,002611.00,3908.5298904,N,09622.1018424,W,1,16,0.65,329.3083,M,-28.2907,M,,*69
   1571690, $GNGSA,M,3,10,01,14,31,20,18,11,24,32,,,,1.20,0.65,1.00*1A
   1571690, $GNGSA,M,3,81,65,71,87,72,73,75,,,,,,1.20,0.65,1.00*11
   1571690, $GPZDA,002611.00,31,08,2019,00,00*62
   1571690, $GNVTG,257.890,T,,M,2.7999,N,5.1854,K,A*13
   1572690, $GPGGA,002612.00,3908.5298112,N,09622.1027811,W,1,16,0.65,329.3340,M,-28.2907,M,,*6F
   1572690, $GNGSA,M,3,10,01,14,31,20,18,11,24,32,,,,1.20,0.65,1.00*1A
   1572690, $GNGSA,M,3,81,65,71,87,72,73,75,,,,,,1.20,0.65,1.00*11
   1572690, $GPZDA,002612.00,31,08,2019,00,00*61
   1572690, $GNVTG,264.433,T,,M,2.4761,N,4.5857,K,A*1A
   1573690, $GPGGA,002613.00,3908.5296996,N,09622.1037915,W,1,15,0.69,329.3750,M,-28.2907,M,,*6A
   1573690, $GNGSA,M,3,10,01,14,31,20,18,11,24,32,,,,1.26,0.69,1.05*15
   1573690, $GNGSA,M,3,81,65,87,72,73,75,,,,,,,1.26,0.69,1.05*18
   1573690, $GPZDA,002613.00,31,08,2019,00,00*60
   1573690, $GNVTG,268.661,T,,M,2.7460,N,5.0855,K,A*14
   1574690, $GPGGA,002614.00,3908.5295753,N,09622.1046305,W,1,16,0.65,329.2883,M,-28.2907,M,,*6B
   1574690, $GNGSA,M,3,10,01,14,31,20,18,11,24,32,,,,1.20,0.65,1.00*1A
   1574690, $GNGSA,M,3,81,65,71,87,72,73,75,,,,,,1.20,0.65,1.00*11
   1574690, $GPZDA,002614.00,31,08,2019,00,00*67
   1574690, $GNVTG,266.487,T,,M,2.6327,N,4.8758,K,A*1E
   1575691, $GPGGA,002615.00,3908.5294045,N,09622.1054928,W,1,16,0.65,329.3261,M,-28.2907,M,,*6A
   1575691, $GNGSA,M,3,10,01,14,31,20,18,11,24,32,,,,1.20,0.65,1.00*1A
   1575691, $GNGSA,M,3,81,65,71,87,72,73,75,,,,,,1.20,0.65,1.00*11
   1575691, $GPZDA,002615.00,31,08,2019,00,00*66
   1575691, $GNVTG,263.810,T,,M,2.5660,N,4.7522,K,A*1C
   1576690, $GPGGA,002616.00,3908.5293177,N,09622.1064214,W,1,16,0.65,329.4198,M,-28.2907,M,,*6B
   1576690, $GNGSA,M,3,10,01,14,31,20,18,11,24,32,,,,1.20,0.65,1.00*1A
   1576690, $GNGSA,M,3,81,65,71,87,72,73,75,,,,,,1.20,0.65,1.00*11
   1576690, $GPZDA,002616.00,31,08,2019,00,00*65
   1576690, $GNVTG,264.307,T,,M,2.6686,N,4.9422,K,A*12
   1577690, $GPGGA,002617.00,3908.5293064,N,09622.1073537,W,1,16,0.65,329.4003,M,-28.2907,M,,*6A
   1577690, $GNGSA,M,3,10,01,14,31,20,18,11,24,32,,,,1.20,0.65,1.00*1A
   1577690, $GNGSA,M,3,81,65,71,87,72,73,75,,,,,,1.20,0.65,1.00*11
   1577690, $GPZDA,002617.00,31,08,2019,00,00*64
   1577690, $GNVTG,259.133,T,,M,2.6641,N,4.9339,K,A*1F
   1578690, $GPGGA,002618.00,3908.5292866,N,09622.1082831,W,1,16,0.65,329.2563,M,-28.2907,M,,*6E
   1578690, $GNGSA,M,3,10,01,14,31,20,18,11,24,32,,,,1.20,0.65,1.00*1A
   1578690, $GNGSA,M,3,81,65,71,87,72,73,75,,,,,,1.20,0.65,1.00*11
   1578690, $GPZDA,002618.00,31,08,2019,00,00*6B
   1578690, $GNVTG,251.904,T,,M,2.9009,N,5.3724,K,A*1D
   1579690, $GPGGA,002619.00,3908.5291735,N,09622.1092325,W,1,17,0.62,329.2190,M,-28.2907,M,,*64
   1579690, $GNGSA,M,3,10,01,14,31,20,18,11,24,12,32,,,1.12,0.62,0.93*14
   1579690, $GNGSA,M,3,81,65,71,87,72,73,75,,,,,,1.12,0.62,0.93*1C
   1579690, $GPZDA,002619.00,31,08,2019,00,00*6A
   1579690, $GNVTG,259.183,T,,M,2.8141,N,5.2117,K,A*19
   1580690, $GPGGA,002620.00,3908.5291336,N,09622.1102247,W,1,17,0.62,329.1680,M,-28.2907,M,,*61
   1580690, $GNGSA,M,3,10,01,14,31,20,18,11,24,12,32,,,1.12,0.62,0.93*14
   1580690, $GNGSA,M,3,81,65,71,87,72,73,75,,,,,,1.12,0.62,0.93*1C
   1580690, $GPZDA,002620.00,31,08,2019,00,00*60
   1580690, $GNVTG,264.393,T,,M,2.7727,N,5.1351,K,A*1E
   1581690, $GPGGA,002621.00,3908.5290931,N,09622.1111469,W,1,17,0.62,329.2794,M,-28.2906,M,,*62
   1581690, $GNGSA,M,3,10,01,14,31,20,18,11,24,12,32,,,1.12,0.62,0.93*14
   1581690, $GNGSA,M,3,81,65,71,87,72,73,75,,,,,,1.12,0.62,0.93*1C
   1581690, $GPZDA,002621.00,31,08,2019,00,00*61
   1581690, $GNVTG,274.036,T,,M,2.6295,N,4.8699,K,A*17
   1582691, $GPGGA,002622.00,3908.5290139,N,09622.1120934,W,1,17,0.62,329.1780,M,-28.2906,M,,*60
   1582691, $GNGSA,M,3,10,01,14,31,20,18,11,24,12,32,,,1.12,0.62,0.93*14
   1582691, $GNGSA,M,3,81,65,71,87,72,73,75,,,,,,1.12,0.62,0.93*1C
   1582691, $GPZDA,002622.00,31,08,2019,00,00*62
   1582691, $GNVTG,270.923,T,,M,2.5378,N,4.7001,K,A*17
   1583690, $GPGGA,002623.00,3908.5290237,N,09622.1129382,W,1,17,0.62,328.4321,M,-28.2906,M,,*69
   1583690, $GNGSA,M,3,10,01,14,31,20,18,11,24,12,32,,,1.12,0.62,0.93*14
   1583690, $GNGSA,M,3,81,65,71,87,72,73,75,,,,,,1.12,0.62,0.93*1C
   1583690, $GPZDA,002623.00,31,08,2019,00,00*63
   1583690, $GNVTG,286.824,T,,M,2.1959,N,4.0669,K,A*1A
   1584690, $GPGGA,002624.00,3908.5291667,N,09622.1136632,W,1,17,0.62,328.4962,M,-28.2906,M,,*63
   1584690, $GNGSA,M,3,10,01,14,31,20,18,11,24,12,32,,,1.12,0.62,0.94*13
   1584690, $GNGSA,M,3,81,65,71,87,72,73,75,,,,,,1.12,0.62,0.94*1B
   1584690, $GPZDA,002624.00,31,08,2019,00,00*64
   1584690, $GNVTG,303.588,T,,M,2.0203,N,3.7417,K,A*13
   1585690, $GPGGA,002625.00,3908.5293998,N,09622.1141188,W,1,17,0.62,328.5440,M,-28.2906,M,,*65
   1585690, $GNGSA,M,3,10,01,14,31,20,18,11,24,12,32,,,1.12,0.62,0.94*13
   1585690, $GNGSA,M,3,81,65,71,87,72,73,75,,,,,,1.12,0.62,0.94*1B
   1585690, $GPZDA,002625.00,31,08,2019,00,00*65
   1585690, $GNVTG,328.778,T,,M,1.4068,N,2.6053,K,A*1B
   1586690, $GPGGA,002626.00,3908.5289633,N,09622.1132909,W,1,17,0.62,330.2543,M,-28.2906,M,,*6A
   1586690, $GNGSA,M,3,10,01,14,31,20,18,24,12,32,,,,1.16,0.62,0.98*1B
   1586690, $GNGSA,M,3,81,65,71,87,88,72,73,75,,,,,1.16,0.62,0.98*13
   1586690, $GPZDA,002626.00,31,08,2019,00,00*66
   1586690, $GNVTG,089.839,T,,M,1.6138,N,2.9888,K,A*1E
   1587690, $GPGGA,002627.00,3908.5290119,N,09622.1126453,W,1,17,0.62,330.1121,M,-28.2905,M,,*6B
   1587690, $GNGSA,M,3,10,01,14,31,20,18,24,12,32,,,,1.16,0.62,0.98*1B
   1587690, $GNGSA,M,3,81,65,71,87,88,72,73,75,,,,,1.16,0.62,0.98*13
   1587690, $GPZDA,002627.00,31,08,2019,00,00*67
   1587690, $GNVTG,094.031,T,,M,2.5162,N,4.6601,K,A*1B
   1588690, $GPGGA,002628.00,3908.5289618,N,09622.1117208,W,1,17,0.62,330.2529,M,-28.2905,M,,*6F
   1588690, $GNGSA,M,3,10,01,14,31,20,18,24,12,32,,,,1.16,0.62,0.98*1B
   1588690, $GNGSA,M,3,81,65,71,87,88,72,73,75,,,,,1.16,0.62,0.98*13
   1588690, $GPZDA,002628.00,31,08,2019,00,00*68
   1588690, $GNVTG,086.647,T,,M,2.5511,N,4.7247,K,A*18
   1589691, $GPGGA,002629.00,3908.5293429,N,09622.1108032,W,1,19,0.58,330.0862,M,-28.2905,M,,*67
   1589691, $GNGSA,M,3,10,21,01,14,31,20,18,24,12,25,32,,1.08,0.58,0.91*10
   1589691, $GNGSA,M,3,81,65,71,87,88,72,73,75,,,,,1.08,0.58,0.91*1C
   1589691, $GPZDA,002629.00,31,08,2019,00,00*69
   1589691, $GNVTG,076.893,T,,M,2.5493,N,4.7213,K,A*1A
   1590690, $GPGGA,002630.00,3908.5292965,N,09622.1101925,W,1,18,0.61,331.2469,M,-28.2905,M,,*62
   1590690, $GNGSA,M,3,10,21,14,31,27,20,18,24,25,32,,,1.14,0.61,0.96*17
   1590690, $GNGSA,M,3,81,65,71,87,88,72,73,75,,,,,1.14,0.61,0.96*1C
   1590690, $GPZDA,002630.00,31,08,2019,00,00*61
   1590690, $GNVTG,077.581,T,,M,2.9184,N,5.4048,K,A*14
   1591691, $GPGGA,002631.00,3908.5293099,N,09622.1087095,W,1,20,0.55,330.6689,M,-28.2905,M,,*60
   1591691, $GNGSA,M,3,10,21,01,14,31,27,20,18,24,12,25,32,1.01,0.55,0.85*14
   1591691, $GNGSA,M,3,81,65,71,87,88,72,73,75,,,,,1.01,0.55,0.85*1D
   1591691, $GPZDA,002631.00,31,08,2019,00,00*60
   1591691, $GNVTG,079.952,T,,M,2.9412,N,5.4471,K,A*1C
   1592690, $GPGGA,002632.00,3908.5295955,N,09622.1079396,W,1,20,0.55,330.1375,M,-28.2906,M,,*6F
   1592690, $GNGSA,M,3,10,21,01,14,31,27,20,18,24,12,25,32,1.01,0.55,0.85*14
   1592690, $GNGSA,M,3,81,65,71,87,88,72,73,75,,,,,1.01,0.55,0.85*1D
   1592690, $GPZDA,002632.00,31,08,2019,00,00*63
   1592690, $GNVTG,078.866,T,,M,2.6223,N,4.8564,K,A*18
   1593690, $GPGGA,002633.00,3908.5295979,N,09622.1069670,W,1,19,0.56,330.3691,M,-28.2906,M,,*68
   1593690, $GNGSA,M,3,10,21,01,14,31,27,20,18,24,12,32,,1.04,0.56,0.87*17
   1593690, $GNGSA,M,3,81,65,71,87,88,72,73,75,,,,,1.04,0.56,0.87*19
   1593690, $GPZDA,002633.00,31,08,2019,00,00*62
   1593690, $GNVTG,085.499,T,,M,2.5611,N,4.7432,K,A*1D
   1594690, $GPGGA,002634.00,3908.5294590,N,09622.1063977,W,1,18,0.59,331.5198,M,-28.2906,M,,*60
   1594690, $GNGSA,M,3,10,21,01,14,31,27,20,18,24,32,,,1.09,0.59,0.92*12
   1594690, $GNGSA,M,3,81,65,71,87,88,72,73,75,,,,,1.09,0.59,0.92*1F
   1594690, $GPZDA,002634.00,31,08,2019,00,00*65
   1594690, $GNVTG,091.307,T,,M,2.6711,N,4.9469,K,A*1A
   1595689, $GPGGA,002635.00,3908.5297065,N,09622.1055300,W,1,17,0.61,330.7964,M,-28.2906,M,,*6E
   1595689, $GNGSA,M,3,10,21,01,14,31,27,20,18,24,32,,,1.11,0.61,0.93*11
   1595689, $GNGSA,M,3,81,65,71,87,72,73,75,,,,,,1.11,0.61,0.93*1C
   1595689, $GPZDA,002635.00,31,08,2019,00,00*64
   1595689, $GNVTG,092.665,T,,M,2.8230,N,5.2281,K,A*1A
   1596692, $GPGGA,002636.00,3908.5298748,N,09622.1047382,W,1,16,0.64,330.5293,M,-28.2906,M,,*66
   1596692, $GNGSA,M,3,10,21,01,14,31,27,20,18,24,32,,,1.16,0.64,0.97*17
   1596692, $GNGSA,M,3,81,65,87,72,73,75,,,,,,,1.16,0.64,0.97*1C
   1596692, $GPZDA,002636.00,31,08,2019,00,00*67
   1596692, $GNVTG,084.350,T,,M,2.5059,N,4.6409,K,A*1D
   1597690, $GPGGA,002637.00,3908.5300695,N,09622.1038333,W,1,16,0.64,330.5502,M,-28.2907,M,,*6A
   1597690, $GNGSA,M,3,10,21,01,14,31,27,20,18,24,32,,,1.16,0.64,0.97*17
   1597690, $GNGSA,M,3,81,65,87,72,73,75,,,,,,,1.16,0.64,0.97*1C
   1597690, $GPZDA,002637.00,31,08,2019,00,00*66
   1597690, $GNVTG,083.912,T,,M,2.5357,N,4.6962,K,A*1B
   1598689, $GPGGA,002638.00,3908.5301664,N,09622.1029302,W,1,15,0.67,330.5028,M,-28.2907,M,,*65
   1598689, $GNGSA,M,3,10,21,01,14,31,27,20,24,32,,,,1.18,0.67,0.97*13
   1598689, $GNGSA,M,3,81,65,87,72,73,75,,,,,,,1.18,0.67,0.97*11
   1598689, $GPZDA,002638.00,31,08,2019,00,00*69
   1598689, $GNVTG,077.891,T,,M,2.6231,N,4.8579,K,A*10
   1599690, $GPGGA,002639.00,3908.5304481,N,09622.1021323,W,1,16,0.64,330.2259,M,-28.2907,M,,*60
   1599690, $GNGSA,M,3,10,21,01,14,31,27,20,18,24,32,,,1.16,0.64,0.97*17
   1599690, $GNGSA,M,3,81,65,87,72,73,75,,,,,,,1.16,0.64,0.97*1C
   1599690, $GPZDA,002639.00,31,08,2019,00,00*68
   1599690, $GNVTG,067.860,T,,M,2.9025,N,5.3754,K,A*10
   1600690, $GPGGA,002640.00,3908.5306764,N,09622.1011880,W,1,15,0.69,330.0041,M,-28.2907,M,,*62
   1600690, $GNGSA,M,3,10,21,01,14,31,27,20,18,24,32,,,1.20,0.69,0.98*10
   1600690, $GNGSA,M,3,81,65,72,73,75,,,,,,,,1.20,0.69,0.98*14
   1600690, $GPZDA,002640.00,31,08,2019,00,00*66
   1600690, $GNVTG,062.009,T,,M,3.0399,N,5.6299,K,A*1F
   1601690, $GPGGA,002641.00,3908.5309534,N,09622.1002084,W,1,15,0.69,329.8749,M,-28.2907,M,,*6A
   1601690, $GNGSA,M,3,10,21,01,14,31,27,20,18,24,32,,,1.20,0.69,0.98*10
   1601690, $GNGSA,M,3,81,65,72,73,75,,,,,,,,1.20,0.69,0.98*14
   1601690, $GPZDA,002641.00,31,08,2019,00,00*67
   1601690, $GNVTG,067.378,T,,M,2.5696,N,4.7589,K,A*17
   1602689, $GPGGA,002642.00,3908.5311884,N,09622.0992909,W,1,14,0.72,329.5174,M,-28.2908,M,,*6A
   1602689, $GNGSA,M,3,10,21,01,14,31,20,18,24,32,,,,1.27,0.72,1.04*1C
   1602689, $GNGSA,M,3,81,65,87,72,75,,,,,,,,1.27,0.72,1.04*16
   1602689, $GPZDA,002642.00,31,08,2019,00,00*64
   1602689, $GNVTG,065.812,T,,M,2.5742,N,4.7674,K,A*1B
   1603690, $GPGGA,002643.00,3908.5314229,N,09622.0984506,W,1,15,0.67,329.7141,M,-28.2908,M,,*66
   1603690, $GNGSA,M,3,10,21,01,14,31,20,18,24,32,,,,1.23,0.67,1.03*1B
   1603690, $GNGSA,M,3,81,65,87,72,73,75,,,,,,,1.23,0.67,1.03*15
   1603690, $GPZDA,002643.00,31,08,2019,00,00*65
   1603690, $GNVTG,066.093,T,,M,2.5785,N,4.7754,K,A*11
   1604690, $GPGGA,002644.00,3908.5316623,N,09622.0977144,W,1,14,0.74,329.7752,M,-28.2908,M,,*64
   1604690, $GNGSA,M,3,10,21,01,14,31,20,18,24,32,,,,1.27,0.74,1.03*1D
   1604690, $GNGSA,M,3,81,65,72,73,75,,,,,,,,1.27,0.74,1.03*1C
   1604690, $GPZDA,002644.00,31,08,2019,00,00*62
   1604690, $GNVTG,071.093,T,,M,2.9129,N,5.3947,K,A*12
   1605689, $GPGGA,002645.00,3908.5319540,N,09622.0968314,W,1,15,0.69,329.8872,M,-28.2908,M,,*6A
   1605689, $GNGSA,M,3,10,21,01,14,31,27,20,18,24,32,,,1.20,0.69,0.98*10
   1605689, $GNGSA,M,3,81,65,72,73,75,,,,,,,,1.20,0.69,0.98*14
   1605689, $GPZDA,002645.00,31,08,2019,00,00*63
   1605689, $GNVTG,079.866,T,,M,2.7944,N,5.1752,K,A*1D
   1606689, $GPGGA,002646.00,3908.5322293,N,09622.0959231,W,1,14,0.74,329.8215,M,-28.2908,M,,*6A
   1606689, $GNGSA,M,3,10,21,01,14,31,20,18,24,32,,,,1.27,0.74,1.03*1D
   1606689, $GNGSA,M,3,81,65,72,73,75,,,,,,,,1.27,0.74,1.03*1C
   1606689, $GPZDA,002646.00,31,08,2019,00,00*60
   1606689, $GNVTG,073.742,T,,M,2.5780,N,4.7744,K,A*1A
   1607690, $GPGGA,002647.00,3908.5324853,N,09622.0950229,W,1,15,0.69,329.7957,M,-28.2909,M,,*65
   1607690, $GNGSA,M,3,10,21,01,14,31,27,20,18,24,32,,,1.20,0.69,0.98*10
   1607690, $GNGSA,M,3,81,65,72,73,75,,,,,,,,1.20,0.69,0.98*14
   1607690, $GPZDA,002647.00,31,08,2019,00,00*61
   1607690, $GNVTG,067.863,T,,M,2.6231,N,4.8580,K,A*1A
   1608689, $GPGGA,002648.00,3908.5327312,N,09622.0943007,W,1,16,0.64,330.2887,M,-28.2909,M,,*64
   1608689, $GNGSA,M,3,10,21,01,14,31,27,20,18,24,32,,,1.16,0.64,0.97*17
   1608689, $GNGSA,M,3,81,65,87,72,73,75,,,,,,,1.16,0.64,0.97*1C
   1608689, $GPZDA,002648.00,31,08,2019,00,00*6E
   1608689, $GNVTG,063.602,T,,M,2.8085,N,5.2013,K,A*10
   1609691, $GPGGA,002649.00,3908.5331024,N,09622.0933512,W,1,16,0.66,330.2652,M,-28.2909,M,,*66
   1609691, $GNGSA,M,3,10,21,08,01,14,31,27,20,18,24,32,,1.17,0.66,0.97*1C
   1609691, $GNGSA,M,3,81,65,87,72,75,,,,,,,,1.17,0.66,0.97*1B
   1609691, $GPZDA,002649.00,31,08,2019,00,00*6F
   1609691, $GNVTG,049.164,T,,M,2.9670,N,5.4949,K,A*12
   1610689, $GPGGA,002650.00,3908.5335545,N,09622.0924614,W,1,16,0.64,330.2263,M,-28.2909,M,,*6F
   1610689, $GNGSA,M,3,10,21,08,01,14,31,20,18,24,32,,,1.17,0.64,0.98*14
   1610689, $GNGSA,M,3,81,65,87,72,73,75,,,,,,,1.17,0.64,0.98*12
   1610689, $GPZDA,002650.00,31,08,2019,00,00*67
   1610689, $GNVTG,044.916,T,,M,2.8559,N,5.2891,K,A*19
   1611690, $GPGGA,002651.00,3908.5340130,N,09622.0914941,W,1,16,0.62,329.9407,M,-28.2909,M,,*67
   1611690, $GNGSA,M,3,10,21,08,01,14,31,12,20,18,24,32,,1.10,0.62,0.91*1F
   1611690, $GNGSA,M,3,81,65,87,72,75,,,,,,,,1.10,0.62,0.91*1E
   1611690, $GPZDA,002651.00,31,08,2019,00,00*66
   1611690, $GNVTG,049.853,T,,M,2.6003,N,4.8158,K,A*17
   1612690, $GPGGA,002652.00,3908.5344877,N,09622.0905836,W,1,18,0.58,329.9261,M,-28.2910,M,,*62
   1612690, $GNGSA,M,3,10,21,08,01,14,31,12,20,18,24,32,,1.06,0.58,0.89*18
   1612690, $GNGSA,M,3,81,65,87,71,72,73,75,,,,,,1.06,0.58,0.89*1B
   1612690, $GPZDA,002652.00,31,08,2019,00,00*65
   1612690, $GNVTG,058.030,T,,M,2.8206,N,5.2237,K,A*12
   1613691, $GPGGA,002653.00,3908.5349421,N,09622.0896919,W,1,18,0.58,329.9410,M,-28.2910,M,,*66
   1613691, $GNGSA,M,3,10,21,08,01,14,31,12,20,18,24,32,,1.06,0.58,0.89*18
   1613691, $GNGSA,M,3,81,65,87,71,72,73,75,,,,,,1.06,0.58,0.89*1B
   1613691, $GPZDA,002653.00,31,08,2019,00,00*64
   1613691, $GNVTG,056.579,T,,M,2.9211,N,5.4100,K,A*12
   1614690, $GPGGA,002654.00,3908.5354240,N,09622.0889848,W,1,17,0.59,330.1617,M,-28.2910,M,,*6C
   1614690, $GNGSA,M,3,10,21,08,01,14,31,12,20,18,24,32,,1.07,0.59,0.89*18
   1614690, $GNGSA,M,3,81,65,87,71,72,75,,,,,,,1.07,0.59,0.89*1F
   1614690, $GPZDA,002654.00,31,08,2019,00,00*63
   1614690, $GNVTG,056.236,T,,M,2.9654,N,5.4920,K,A*11
   1615690, $GPGGA,002655.00,3908.5359789,N,09622.0882562,W,1,18,0.57,330.1242,M,-28.2910,M,,*6B
   1615690, $GNGSA,M,3,10,21,08,01,14,31,12,27,20,18,24,32,1.02,0.57,0.85*1A
   1615690, $GNGSA,M,3,81,65,87,71,72,75,,,,,,,1.02,0.57,0.85*18
   1615690, $GPZDA,002655.00,31,08,2019,00,00*62
   1615690, $GNVTG,051.728,T,,M,2.6625,N,4.9310,K,A*10
   1616692, $GPGGA,002656.00,3908.5365286,N,09622.0874534,W,1,18,0.57,330.2257,M,-28.2910,M,,*60
   1616692, $GNGSA,M,3,10,21,08,01,14,31,12,27,20,18,24,32,1.02,0.57,0.85*1A
   1616692, $GNGSA,M,3,81,65,87,71,72,75,,,,,,,1.02,0.57,0.85*18
   1616692, $GPZDA,002656.00,31,08,2019,00,00*61
   1616692, $GNVTG,053.400,T,,M,2.7164,N,5.0308,K,A*19
   1617690, $GPGGA,002657.00,3908.5370297,N,09622.0866679,W,1,18,0.57,330.2672,M,-28.2910,M,,*6F
   1617690, $GNGSA,M,3,10,21,08,01,14,31,12,27,20,18,24,32,1.02,0.57,0.85*1A
   1617690, $GNGSA,M,3,81,65,87,71,72,75,,,,,,,1.02,0.57,0.85*18
   1617690, $GPZDA,002657.00,31,08,2019,00,00*60
   1617690, $GNVTG,042.992,T,,M,2.8361,N,5.2524,K,A*1D
   1618690, $GPGGA,002658.00,3908.5374891,N,09622.0858923,W,1,18,0.57,330.2501,M,-28.2910,M,,*62
   1618690, $GNGSA,M,3,10,21,08,01,14,31,12,27,20,18,24,32,1.02,0.57,0.85*1A
   1618690, $GNGSA,M,3,81,65,87,71,72,75,,,,,,,1.02,0.57,0.85*18
   1618690, $GPZDA,002658.00,31,08,2019,00,00*6F
   1618690, $GNVTG,047.978,T,,M,2.8333,N,5.2473,K,A*18
   1619690, $GPGGA,002659.00,3908.5379757,N,09622.0851375,W,1,18,0.57,330.2810,M,-28.2910,M,,*66
   1619690, $GNGSA,M,3,10,21,08,01,14,31,12,27,20,18,24,32,1.02,0.57,0.85*1A
   1619690, $GNGSA,M,3,81,65,87,71,72,75,,,,,,,1.02,0.57,0.85*18
   1619690, $GPZDA,002659.00,31,08,2019,00,00*6E
   1619690, $GNVTG,039.633,T,,M,2.8523,N,5.2824,K,A*18
   1620690, $GPGGA,002700.00,3908.5385462,N,09622.0843533,W,1,18,0.57,330.5137,M,-28.2910,M,,*61
   1620690, $GNGSA,M,3,10,21,08,01,14,31,12,27,20,18,24,32,1.02,0.57,0.85*1A
   1620690, $GNGSA,M,3,81,65,87,71,72,75,,,,,,,1.02,0.57,0.85*18
   1620690, $GPZDA,002700.00,31,08,2019,00,00*63
   1620690, $GNVTG,039.945,T,,M,2.6519,N,4.9114,K,A*11
   1621690, $GPGGA,002701.00,3908.5391249,N,09622.0836681,W,1,18,0.57,330.6361,M,-28.2910,M,,*60
   1621690, $GNGSA,M,3,10,21,08,01,14,31,12,27,20,18,24,32,1.02,0.57,0.85*1A
   1621690, $GNGSA,M,3,81,65,87,71,72,75,,,,,,,1.02,0.57,0.85*18
   1621690, $GPZDA,002701.00,31,08,2019,00,00*62
   1621690, $GNVTG,040.596,T,,M,2.6940,N,4.9892,K,A*1A
   1622690, $GPGGA,002702.00,3908.5396917,N,09622.0831682,W,1,16,0.66,331.0433,M,-28.2911,M,,*6A
   1622690, $GNGSA,M,3,10,21,08,01,14,31,27,20,18,24,32,,1.17,0.66,0.97*1C
   1622690, $GNGSA,M,3,81,65,87,72,75,,,,,,,,1.17,0.66,0.97*1B
   1622690, $GPZDA,002702.00,31,08,2019,00,00*61
   1622690, $GNVTG,047.177,T,,M,3.0061,N,5.5673,K,A*17
   1623691, $GPGGA,002703.00,3908.5402666,N,09622.0825454,W,1,17,0.60,331.1229,M,-28.2911,M,,*6F
   1623691, $GNGSA,M,3,10,21,08,01,14,31,12,27,20,18,24,32,1.06,0.60,0.88*17
   1623691, $GNGSA,M,3,81,65,87,72,75,,,,,,,,1.06,0.60,0.88*13
   1623691, $GPZDA,002703.00,31,08,2019,00,00*60
   1623691, $GNVTG,050.642,T,,M,3.0369,N,5.6244,K,A*18
   1624690, $GPGGA,002704.00,3908.5408641,N,09622.0817743,W,1,16,0.66,331.0485,M,-28.2911,M,,*65
   1624690, $GNGSA,M,3,10,21,08,01,14,31,27,20,18,24,32,,1.17,0.66,0.97*1C
   1624690, $GNGSA,M,3,81,65,87,72,75,,,,,,,,1.17,0.66,0.97*1B
   1624690, $GPZDA,002704.00,31,08,2019,00,00*67
   1624690, $GNVTG,046.705,T,,M,2.7290,N,5.0542,K,A*1B
   1625689, $GPGGA,002705.00,3908.5414223,N,09622.0811284,W,1,15,0.69,331.2803,M,-28.2911,M,,*6D
   1625689, $GNGSA,M,3,10,21,08,01,14,31,27,20,18,24,32,,1.24,0.69,1.03*1F
   1625689, $GNGSA,M,3,65,87,72,75,,,,,,,,,1.24,0.69,1.03*11
   1625689, $GPZDA,002705.00,31,08,2019,00,00*66
   1625689, $GNVTG,044.099,T,,M,2.6329,N,4.8761,K,A*13
   1626690, $GPGGA,002706.00,3908.5419955,N,09622.0804146,W,1,14,0.75,331.9383,M,-28.2911,M,,*64
   1626690, $GNGSA,M,3,10,21,08,01,14,31,20,18,24,32,,,1.25,0.75,1.00*15
   1626690, $GNGSA,M,3,81,65,72,75,,,,,,,,,1.25,0.75,1.00*18
   1626690, $GPZDA,002706.00,31,08,2019,00,00*65
   1626690, $GNVTG,037.457,T,,M,2.4312,N,4.5027,K,A*13
   1627690, $GPGGA,002707.00,3908.5421075,N,09622.0795395,W,1,14,0.72,330.8166,M,-28.2912,M,,*63
   1627690, $GNGSA,M,3,10,08,01,14,31,20,18,24,32,,,,1.28,0.72,1.05*19
   1627690, $GNGSA,M,3,81,65,87,72,75,,,,,,,,1.28,0.72,1.05*18
   1627690, $GPZDA,002707.00,31,08,2019,00,00*64
   1627690, $GNVTG,031.399,T,,M,2.7982,N,5.1822,K,A*18
   1628690, $GPGGA,002708.00,3908.5427814,N,09622.0793795,W,1,16,0.66,332.8437,M,-28.2912,M,,*63
   1628690, $GNGSA,M,3,10,21,08,01,14,31,27,20,18,24,32,,1.17,0.66,0.97*1C
   1628690, $GNGSA,M,3,81,65,87,72,75,,,,,,,,1.17,0.66,0.97*1B
   1628690, $GPZDA,002708.00,31,08,2019,00,00*6B
   1628690, $GNVTG,036.846,T,,M,2.4213,N,4.4842,K,A*14
   1629689, $GPGGA,002709.00,3908.5436341,N,09622.0790079,W,1,15,0.68,332.5455,M,-28.2912,M,,*6B
   1629689, $GNGSA,M,3,10,21,08,01,14,31,27,20,24,32,,,1.18,0.68,0.97*14
   1629689, $GNGSA,M,3,81,65,87,72,75,,,,,,,,1.18,0.68,0.97*1A
   1629689, $GPZDA,002709.00,31,08,2019,00,00*6A
   1629689, $GNVTG,046.105,T,,M,2.6115,N,4.8364,K,A*19
   1630690, $GPGGA,002710.00,3908.5441445,N,09622.0782214,W,1,15,0.68,332.8685,M,-28.2912,M,,*68
   1630690, $GNGSA,M,3,10,21,08,01,14,31,27,20,24,32,,,1.18,0.68,0.97*14
   1630690, $GNGSA,M,3,81,65,87,72,75,,,,,,,,1.18,0.68,0.97*1A
   1630690, $GPZDA,002710.00,31,08,2019,00,00*62
   1630690, $GNVTG,040.267,T,,M,2.7909,N,5.1688,K,A*13
   1631690, $GPGGA,002711.00,3908.5444725,N,09622.0774107,W,1,16,0.64,333.2977,M,-28.2912,M,,*67
   1631690, $GNGSA,M,3,10,21,08,01,14,31,25,20,18,24,32,,1.12,0.64,0.91*1F
   1631690, $GNGSA,M,3,81,65,87,72,75,,,,,,,,1.12,0.64,0.91*1A
   1631690, $GPZDA,002711.00,31,08,2019,00,00*63
   1631690, $GNVTG,038.520,T,,M,2.6048,N,4.8241,K,A*1C
   1632690, $GPGGA,002712.00,3908.5452365,N,09622.0769515,W,1,18,0.61,333.3576,M,-28.2913,M,,*6E
   1632690, $GNGSA,M,3,10,21,08,01,14,31,25,27,20,18,24,32,1.07,0.61,0.88*13
   1632690, $GNGSA,M,3,81,65,87,72,88,75,,,,,,,1.07,0.61,0.88*13
   1632690, $GPZDA,002712.00,31,08,2019,00,00*60
   1632690, $GNVTG,036.591,T,,M,2.4001,N,4.4449,K,A*15
   1633690, $GPGGA,002713.00,3908.5454779,N,09622.0764110,W,1,16,0.68,332.3747,M,-28.2913,M,,*6A
   1633690, $GNGSA,M,3,10,21,08,01,14,31,27,20,18,24,32,,1.18,0.68,0.96*1C
   1633690, $GNGSA,M,3,81,65,72,88,75,,,,,,,,1.18,0.68,0.96*14
   1633690, $GPZDA,002713.00,31,08,2019,00,00*61
   1633690, $GNVTG,028.008,T,,M,2.0162,N,3.7340,K,A*15
   1634690, $GPGGA,002714.00,3908.5459668,N,09622.0761410,W,1,17,0.63,332.2002,M,-28.2913,M,,*6C
   1634690, $GNGSA,M,3,10,21,08,01,14,31,25,20,18,24,32,,1.11,0.63,0.91*1B
   1634690, $GNGSA,M,3,81,65,87,72,88,75,,,,,,,1.11,0.63,0.91*1E
   1634690, $GPZDA,002714.00,31,08,2019,00,00*66
   1634690, $GNVTG,013.218,T,,M,1.8337,N,3.3960,K,A*1B
   1635690, $GPGGA,002715.00,3908.5463019,N,09622.0758819,W,1,16,0.67,332.2451,M,-28.2913,M,,*6C
   1635690, $GNGSA,M,3,10,21,08,01,14,31,20,18,24,32,,,1.19,0.67,0.99*18
   1635690, $GNGSA,M,3,81,65,87,72,88,75,,,,,,,1.19,0.67,0.99*1A
   1635690, $GPZDA,002715.00,31,08,2019,00,00*67
   1635690, $GNVTG,344.147,T,,M,0.6792,N,1.2578,K,A*11
   1636689, $GPGGA,002716.00,3908.5465442,N,09622.0761155,W,1,15,0.67,331.7956,M,-28.2913,M,,*67
   1636689, $GNGSA,M,3,10,21,08,01,14,31,20,18,24,32,,,1.18,0.67,0.97*17
   1636689, $GNGSA,M,3,65,71,72,88,75,,,,,,,,1.18,0.67,0.97*15
   1636689, $GPZDA,002716.00,31,08,2019,00,00*64
   1636689, $GNVTG,297.960,T,,M,0.2803,N,0.5191,K,A*15
   1637690, $GPGGA,002717.00,3908.5466305,N,09622.0758722,W,1,14,0.74,331.3604,M,-28.2913,M,,*62
   1637690, $GNGSA,M,3,10,21,08,01,14,31,20,18,24,32,,,1.25,0.74,1.01*15
   1637690, $GNGSA,M,3,81,65,88,75,,,,,,,,,1.25,0.74,1.01*1D
   1637690, $GPZDA,002717.00,31,08,2019,00,00*65
   1637690, $GNVTG,283.329,T,,M,0.2758,N,0.5108,K,A*16
   1638690, $GPGGA,002718.00,3908.5464592,N,09622.0757216,W,1,14,0.75,330.2632,M,-28.2913,M,,*6E
   1638690, $GNGSA,M,3,10,08,01,14,31,20,18,24,32,,,,1.28,0.75,1.04*1F
   1638690, $GNGSA,M,3,81,65,72,88,75,,,,,,,,1.28,0.75,1.04*11
   1638690, $GPZDA,002718.00,31,08,2019,00,00*6A
   1638690, $GNVTG,311.636,T,,M,0.2766,N,0.5122,K,A*12
   1639690, $GPGGA,002719.00,3908.5464000,N,09622.0762535,W,1,15,0.69,332.0127,M,-28.2913,M,,*6E
   1639690, $GNGSA,M,3,10,21,08,14,31,20,18,24,32,,,,1.28,0.69,1.08*1C
   1639690, $GNGSA,M,3,81,65,72,87,88,75,,,,,,,1.28,0.69,1.08*1F
   1639690, $GPZDA,002719.00,31,08,2019,00,00*6B
   1639690, $GNVTG,307.354,T,,M,0.1204,N,0.2230,K,A*11
   1640690, $GPGGA,002720.00,3908.5469933,N,09622.0763132,W,1,15,0.70,331.2848,M,-28.2913,M,,*6B
   1640690, $GNGSA,M,3,10,21,01,14,31,20,18,24,32,,,,1.24,0.70,1.03*1A
   1640690, $GNGSA,M,3,81,65,73,72,88,75,,,,,,,1.24,0.70,1.03*1B
   1640690, $GPZDA,002720.00,31,08,2019,00,00*61
   1640690, $GNVTG,198.267,T,,M,0.1692,N,0.3133,K,A*1E
   1641690, $GPGGA,002721.00,3908.5469832,N,09622.0764958,W,1,15,0.70,331.3424,M,-28.2913,M,,*6E
   1641690, $GNGSA,M,3,10,21,01,14,31,20,18,24,32,,,,1.24,0.70,1.03*1A
   1641690, $GNGSA,M,3,81,65,73,72,88,75,,,,,,,1.24,0.70,1.03*1B
   1641690, $GPZDA,002721.00,31,08,2019,00,00*60
   1641690, $GNVTG,221.162,T,,M,0.8615,N,1.5954,K,A*11
   1642689, $GPGGA,002722.00,3908.5466135,N,09622.0767469,W,1,16,0.68,331.8907,M,-28.2913,M,,*6D
   1642689, $GNGSA,M,3,10,21,01,14,31,11,20,18,24,32,,,1.19,0.68,0.98*1E
   1642689, $GNGSA,M,3,81,65,73,72,88,75,,,,,,,1.19,0.68,0.98*1F
   1642689, $GPZDA,002722.00,31,08,2019,00,00*63
   1642689, $GNVTG,199.891,T,,M,2.2280,N,4.1262,K,A*1B
   1643691, $GPGGA,002723.00,3908.5462277,N,09622.0772028,W,1,16,0.68,332.0670,M,-28.2913,M,,*6C
   1643691, $GNGSA,M,3,10,21,01,14,31,11,20,18,24,32,,,1.19,0.68,0.98*1E
   1643691, $GNGSA,M,3,81,65,73,72,88,75,,,,,,,1.19,0.68,0.98*1F
   1643691, $GPZDA,002723.00,31,08,2019,00,00*62
   1643691, $GNVTG,213.478,T,,M,1.7197,N,3.1848,K,A*17
   1644690, $GPGGA,002724.00,3908.5459406,N,09622.0775980,W,1,16,0.68,332.1882,M,-28.2913,M,,*6D
   1644690, $GNGSA,M,3,10,21,01,14,31,11,20,18,24,32,,,1.19,0.68,0.98*1E
   1644690, $GNGSA,M,3,81,65,73,72,88,75,,,,,,,1.19,0.68,0.98*1F
   1644690, $GPZDA,002724.00,31,08,2019,00,00*65
   1644690, $GNVTG,211.231,T,,M,0.3898,N,0.7219,K,A*16
   1645690, $GPGGA,002725.00,3908.5458765,N,09622.0776153,W,1,15,0.74,332.3389,M,-28.2913,M,,*62
   1645690, $GNGSA,M,3,10,21,01,14,31,11,20,18,24,32,,,1.26,0.74,1.02*1D
   1645690, $GNGSA,M,3,81,65,73,72,88,,,,,,,,1.26,0.74,1.02*1E
   1645690, $GPZDA,002725.00,31,08,2019,00,00*64
   1645690, $GNVTG,245.499,T,,M,0.2052,N,0.3801,K,A*1B
   1646690, $GPGGA,002726.00,3908.5458577,N,09622.0775729,W,1,16,0.70,331.9504,M,-28.2913,M,,*65
   1646690, $GNGSA,M,3,10,21,01,14,31,11,20,18,25,24,32,,1.16,0.70,0.93*14
   1646690, $GNGSA,M,3,81,65,73,72,88,,,,,,,,1.16,0.70,0.93*10
   1646690, $GPZDA,002726.00,31,08,2019,00,00*67
   1646690, $GNVTG,239.016,T,,M,0.4682,N,0.8672,K,A*1F
   1647689, $GPGGA,002727.00,3908.5456365,N,09622.0779369,W,1,17,0.68,331.9054,M,-28.2913,M,,*6B
   1647689, $GNGSA,M,3,10,21,01,14,31,11,20,18,08,25,24,32,1.12,0.68,0.90*12
   1647689, $GNGSA,M,3,81,65,73,72,88,,,,,,,,1.12,0.68,0.90*1E
   1647689, $GPZDA,002727.00,31,08,2019,00,00*66
   1647689, $GNVTG,222.652,T,,M,2.0078,N,3.7184,K,A*14
   1648690, $GPGGA,002728.00,3908.5452520,N,09622.0784067,W,1,18,0.61,331.8291,M,-28.2912,M,,*65
   1648690, $GNGSA,M,3,10,21,01,14,31,11,20,18,08,25,24,32,1.09,0.61,0.90*11
   1648690, $GNGSA,M,3,81,65,87,73,72,88,,,,,,,1.09,0.61,0.90*12
   1648690, $GPZDA,002728.00,31,08,2019,00,00*69
   1648690, $GNVTG,205.794,T,,M,2.5649,N,4.7502,K,A*16
   1649690, $GPGGA,002729.00,3908.5446956,N,09622.0788988,W,1,18,0.61,331.7675,M,-28.2912,M,,*69
   1649690, $GNGSA,M,3,10,21,01,14,31,11,20,18,08,25,24,32,1.09,0.61,0.90*11
   1649690, $GNGSA,M,3,81,65,87,73,72,88,,,,,,,1.09,0.61,0.90*12
   1649690, $GPZDA,002729.00,31,08,2019,00,00*68
   1649690, $GNVTG,206.479,T,,M,2.4224,N,4.4863,K,A*12
   1650691, $GPGGA,002730.00,3908.5441591,N,09622.0793751,W,1,18,0.61,331.7711,M,-28.2912,M,,*62
   1650691, $GNGSA,M,3,10,21,01,14,31,11,20,18,08,25,24,32,1.09,0.61,0.90*11
   1650691, $GNGSA,M,3,81,65,87,73,72,88,,,,,,,1.09,0.61,0.90*12
   1650691, $GPZDA,002730.00,31,08,2019,00,00*60
   1650691, $GNVTG,219.223,T,,M,2.3249,N,4.3057,K,A*11
   1651690, $GPGGA,002731.00,3908.5436364,N,09622.0799380,W,1,18,0.61,331.7082,M,-28.2912,M,,*60
   1651690, $GNGSA,M,3,10,21,01,14,31,11,20,18,08,25,24,32,1.09,0.61,0.90*11
   1651690, $GNGSA,M,3,81,65,87,73,72,88,,,,,,,1.09,0.61,0.90*12
   1651690, $GPZDA,002731.00,31,08,2019,00,00*61
   1651690, $GNVTG,226.762,T,,M,2.5299,N,4.6854,K,A*18
   1652690, $GPGGA,002732.00,3908.5431520,N,09622.0806533,W,1,18,0.61,331.6695,M,-28.2912,M,,*64
   1652690, $GNGSA,M,3,10,21,01,14,31,11,20,18,08,25,24,32,1.09,0.61,0.90*11
   1652690, $GNGSA,M,3,81,65,87,73,72,88,,,,,,,1.09,0.61,0.90*12
   1652690, $GPZDA,002732.00,31,08,2019,00,00*62
   1652690, $GNVTG,238.896,T,,M,2.8008,N,5.1871,K,A*15
   1653690, $GPGGA,002733.00,3908.5426550,N,09622.0813968,W,1,18,0.61,331.5666,M,-28.2912,M,,*6D
   1653690, $GNGSA,M,3,10,21,01,14,31,11,20,18,08,25,24,32,1.09,0.61,0.90*11
   1653690, $GNGSA,M,3,81,65,87,73,72,88,,,,,,,1.09,0.61,0.90*12
   1653690, $GPZDA,002733.00,31,08,2019,00,00*63
   1653690, $GNVTG,236.684,T,,M,2.6929,N,4.9873,K,A*19
   1654690, $GPGGA,002734.00,3908.5420617,N,09622.0819398,W,1,18,0.61,331.7811,M,-28.2912,M,,*6F
   1654690, $GNGSA,M,3,10,21,01,14,31,11,20,18,08,25,24,32,1.09,0.61,0.90*11
   1654690, $GNGSA,M,3,81,65,87,73,72,88,,,,,,,1.09,0.61,0.90*12
   1654690, $GPZDA,002734.00,31,08,2019,00,00*64
   1654690, $GNVTG,225.806,T,,M,2.6143,N,4.8416,K,A*15
   1655690, $GPGGA,002735.00,3908.5415387,N,09622.0826763,W,1,18,0.61,331.7216,M,-28.2912,M,,*65
   1655690, $GNGSA,M,3,10,21,01,14,31,11,20,18,08,25,24,32,1.09,0.61,0.90*11
   1655690, $GNGSA,M,3,81,65,87,73,72,88,,,,,,,1.09,0.61,0.90*12
   1655690, $GPZDA,002735.00,31,08,2019,00,00*65
   1655690, $GNVTG,220.355,T,,M,2.7729,N,5.1355,K,A*1E
   1656690, $GPGGA,002736.00,3908.5410420,N,09622.0833384,W,1,17,0.65,331.6343,M,-28.2912,M,,*6B
   1656690, $GNGSA,M,3,10,21,01,14,31,11,20,18,08,25,24,32,1.12,0.65,0.91*1E
   1656690, $GNGSA,M,3,81,65,87,72,88,,,,,,,,1.12,0.65,0.91*19
   1656690, $GPZDA,002736.00,31,08,2019,00,00*66
   1656690, $GNVTG,218.747,T,,M,2.6902,N,4.9823,K,A*17
   1657691, $GPGGA,002737.00,3908.5404768,N,09622.0838929,W,1,18,0.61,331.5906,M,-28.2912,M,,*65
   1657691, $GNGSA,M,3,10,21,01,14,31,11,20,18,08,12,25,24,1.06,0.61,0.87*1A
   1657691, $GNGSA,M,3,81,65,87,72,88,,,,,,,,1.06,0.61,0.87*1F
   1657691, $GPZDA,002737.00,31,08,2019,00,00*67
   1657691, $GNVTG,217.098,T,,M,2.7463,N,5.0861,K,A*18
   1658690, $GPGGA,002738.00,3908.5399700,N,09622.0845785,W,1,19,0.59,331.6602,M,-28.2911,M,,*64
   1658690, $GNGSA,M,3,10,21,01,14,31,11,20,18,08,12,25,24,1.04,0.59,0.86*12
   1658690, $GNGSA,M,3,81,65,87,73,72,88,,,,,,,1.04,0.59,0.86*13
   1658690, $GPZDA,002738.00,31,08,2019,00,00*68
   1658690, $GNVTG,219.965,T,,M,2.5842,N,4.7859,K,A*1D
   1659689, $GPGGA,002739.00,3908.5394507,N,09622.0851610,W,1,18,0.61,331.7671,M,-28.2911,M,,*6A
   1659689, $GNGSA,M,3,10,21,01,14,31,11,20,18,12,25,24,32,1.08,0.61,0.89*13
   1659689, $GNGSA,M,3,81,65,87,73,72,88,,,,,,,1.08,0.61,0.89*1B
   1659689, $GPZDA,002739.00,31,08,2019,00,00*69
   1659689, $GNVTG,223.856,T,,M,2.3310,N,4.3170,K,A*19
   1660690, $GPGGA,002740.00,3908.5389236,N,09622.0857997,W,1,18,0.61,331.6629,M,-28.2911,M,,*67
   1660690, $GNGSA,M,3,10,21,01,14,31,11,20,18,12,25,24,32,1.08,0.61,0.89*13
   1660690, $GNGSA,M,3,81,65,87,73,72,88,,,,,,,1.08,0.61,0.89*1B
   1660690, $GPZDA,002740.00,31,08,2019,00,00*67
   1660690, $GNVTG,227.986,T,,M,2.7300,N,5.0560,K,A*13
   1661690, $GPGGA,002741.00,3908.5384368,N,09622.0864900,W,1,18,0.61,331.4946,M,-28.2911,M,,*6B
   1661690, $GNGSA,M,3,10,21,01,14,31,11,20,18,12,25,24,32,1.08,0.61,0.89*13
   1661690, $GNGSA,M,3,81,65,87,73,72,88,,,,,,,1.08,0.61,0.89*1B
   1661690, $GPZDA,002741.00,31,08,2019,00,00*66
   1661690, $GNVTG,243.487,T,,M,2.5556,N,4.7329,K,A*17
   1662691, $GPGGA,002742.00,3908.5379791,N,09622.0872044,W,1,17,0.61,331.3789,M,-28.2911,M,,*63
   1662691, $GNGSA,M,3,10,21,01,14,31,11,20,18,12,25,24,32,1.09,0.61,0.91*1B
   1662691, $GNGSA,M,3,81,87,73,72,88,,,,,,,,1.09,0.61,0.91*10
   1662691, $GPZDA,002742.00,31,08,2019,00,00*65
   1662691, $GNVTG,234.998,T,,M,2.6431,N,4.8950,K,A*1C
   1663689, $GPGGA,002743.00,3908.5375041,N,09622.0879185,W,1,18,0.61,331.3680,M,-28.2910,M,,*65
   1663689, $GNGSA,M,3,10,21,01,14,31,11,20,18,12,25,24,32,1.08,0.61,0.89*13
   1663689, $GNGSA,M,3,81,65,87,73,72,88,,,,,,,1.08,0.61,0.89*1B
   1663689, $GPZDA,002743.00,31,08,2019,00,00*64
   1663689, $GNVTG,233.630,T,,M,2.6486,N,4.9052,K,A*10
   1664690, $GPGGA,002744.00,3908.5370966,N,09622.0886913,W,1,18,0.61,331.4170,M,-28.2910,M,,*63
   1664690, $GNGSA,M,3,10,21,01,14,31,11,20,18,12,25,24,32,1.08,0.61,0.89*13
   1664690, $GNGSA,M,3,81,65,87,73,72,88,,,,,,,1.08,0.61,0.89*1B
   1664690, $GPZDA,002744.00,31,08,2019,00,00*63
   1664690, $GNVTG,230.225,T,,M,2.6477,N,4.9035,K,A*1C
   1665690, $GPGGA,002745.00,3908.5366469,N,09622.0894472,W,1,18,0.61,331.3794,M,-28.2910,M,,*65
   1665690, $GNGSA,M,3,10,21,01,14,31,11,20,18,12,25,24,32,1.08,0.61,0.90*1B
   1665690, $GNGSA,M,3,81,65,87,73,72,88,,,,,,,1.08,0.61,0.90*13
   1665690, $GPZDA,002745.00,31,08,2019,00,00*62
   1665690, $GNVTG,219.648,T,,M,2.6671,N,4.9394,K,A*14
   1666690, $GPGGA,002746.00,3908.5362011,N,09622.0902990,W,1,17,0.62,331.1637,M,-28.2910,M,,*60
   1666690, $GNGSA,M,3,10,21,01,14,31,11,18,12,25,24,32,,1.12,0.62,0.93*12
   1666690, $GNGSA,M,3,81,65,87,73,72,88,,,,,,,1.12,0.62,0.93*18
   1666690, $GPZDA,002746.00,31,08,2019,00,00*61
   1666690, $GNVTG,227.872,T,,M,2.6560,N,4.9189,K,A*13
   1667690, $GPGGA,002747.00,3908.5359035,N,09622.0911533,W,1,18,0.61,330.6976,M,-28.2910,M,,*68
   1667690, $GNGSA,M,3,10,21,01,14,31,11,20,18,12,25,24,32,1.08,0.61,0.90*1B
   1667690, $GNGSA,M,3,81,65,87,73,72,88,,,,,,,1.08,0.61,0.90*13
   1667690, $GPZDA,002747.00,31,08,2019,00,00*60
   1667690, $GNVTG,235.003,T,,M,2.5614,N,4.7437,K,A*13
   1668690, $GPGGA,002748.00,3908.5355156,N,09622.0919654,W,1,18,0.61,330.6383,M,-28.2910,M,,*65
   1668690, $GNGSA,M,3,10,21,01,14,31,11,20,18,12,25,24,32,1.08,0.61,0.90*1B
   1668690, $GNGSA,M,3,81,65,87,73,72,88,,,,,,,1.08,0.61,0.90*13
   1668690, $GPZDA,002748.00,31,08,2019,00,00*6F
   1668690, $GNVTG,243.172,T,,M,2.6087,N,4.8313,K,A*14
   1669689, $GPGGA,002749.00,3908.5351279,N,09622.0927564,W,1,17,0.67,330.4856,M,-28.2910,M,,*6B
   1669689, $GNGSA,M,3,10,21,01,14,31,11,20,18,12,25,24,32,1.12,0.67,0.90*16
   1669689, $GNGSA,M,3,81,65,73,72,88,,,,,,,,1.12,0.67,0.90*11
   1669689, $GPZDA,002749.00,31,08,2019,00,00*6E
   1669689, $GNVTG,247.391,T,,M,2.6703,N,4.9454,K,A*11
   1670691, $GPGGA,002750.00,3908.5347318,N,09622.0934710,W,1,18,0.61,330.5250,M,-28.2910,M,,*65
   1670691, $GNGSA,M,3,10,21,01,14,31,11,20,18,12,25,24,32,1.08,0.61,0.90*1B
   1670691, $GNGSA,M,3,81,65,87,73,72,88,,,,,,,1.08,0.61,0.90*13
   1670691, $GPZDA,002750.00,31,08,2019,00,00*66
   1670691, $GNVTG,244.894,T,,M,2.7275,N,5.0514,K,A*14
   1671691, $GPGGA,002751.00,3908.5343723,N,09622.0942428,W,1,19,0.59,330.6025,M,-28.2910,M,,*6C
   1671691, $GNGSA,M,3,10,21,01,14,31,11,20,18,12,25,24,32,1.06,0.59,0.88*17
   1671691, $GNGSA,M,3,71,81,65,87,73,72,88,,,,,,1.06,0.59,0.88*19
   1671691, $GPZDA,002751.00,31,08,2019,00,00*67
   1671691, $GNVTG,239.433,T,,M,2.6214,N,4.8549,K,A*18
   1672690, $GPGGA,002752.00,3908.5340432,N,09622.0949212,W,1,19,0.59,330.8416,M,-28.2910,M,,*61
   1672690, $GNGSA,M,3,10,21,01,14,31,11,20,18,12,25,24,32,1.06,0.59,0.88*17
   1672690, $GNGSA,M,3,71,81,65,87,73,72,88,,,,,,1.06,0.59,0.88*19
   1672690, $GPZDA,002752.00,31,08,2019,00,00*64
   1672690, $GNVTG,239.748,T,,M,2.8499,N,5.2780,K,A*16
   1673690, $GPGGA,002753.00,3908.5338504,N,09622.0960694,W,1,18,0.60,330.2296,M,-28.2909,M,,*6D
   1673690, $GNGSA,M,3,10,21,01,14,31,11,20,18,12,25,24,32,1.07,0.60,0.88*1C
   1673690, $GNGSA,M,3,71,81,65,87,73,72,,,,,,,1.07,0.60,0.88*12
   1673690, $GPZDA,002753.00,31,08,2019,00,00*65
   1673690, $GNVTG,242.315,T,,M,2.5216,N,4.6700,K,A*17
   1674689, $GPGGA,002754.00,3908.5334799,N,09622.0968375,W,1,19,0.59,330.6630,M,-28.2909,M,,*65
   1674689, $GNGSA,M,3,10,21,01,14,31,11,20,18,12,25,24,32,1.06,0.59,0.88*17
   1674689, $GNGSA,M,3,71,81,65,87,73,72,88,,,,,,1.06,0.59,0.88*19
   1674689, $GPZDA,002754.00,31,08,2019,00,00*62
   1674689, $GNVTG,243.151,T,,M,2.8372,N,5.2544,K,A*1D
   1675690, $GPGGA,002755.00,3908.5333397,N,09622.0977447,W,1,18,0.58,330.6710,M,-28.2909,M,,*62
   1675690, $GNGSA,M,3,10,21,01,14,31,11,18,12,25,24,32,,1.08,0.58,0.91*12
   1675690, $GNGSA,M,3,71,81,65,87,73,72,75,,,,,,1.08,0.58,0.91*1C
   1675690, $GPZDA,002755.00,31,08,2019,00,00*63
   1675690, $GNVTG,254.305,T,,M,2.4115,N,4.4662,K,A*17
   1676690, $GPGGA,002756.00,3908.5331541,N,09622.0985423,W,1,19,0.57,330.8486,M,-28.2909,M,,*6D
   1676690, $GNGSA,M,3,10,21,01,14,31,11,20,18,12,25,24,32,1.04,0.57,0.87*14
   1676690, $GNGSA,M,3,71,81,65,87,73,72,75,,,,,,1.04,0.57,0.87*18
   1676690, $GPZDA,002756.00,31,08,2019,00,00*60
   1676690, $GNVTG,256.100,T,,M,2.5446,N,4.7127,K,A*15
   1677691, $GPGGA,002757.00,3908.5329006,N,09622.0995107,W,1,20,0.56,330.8599,M,-28.2909,M,,*65
   1677691, $GNGSA,M,3,10,21,01,14,31,11,20,18,12,25,24,32,1.04,0.56,0.87*15
   1677691, $GNGSA,M,3,71,81,65,87,73,72,75,88,,,,,1.04,0.56,0.87*19
   1677691, $GPZDA,002757.00,31,08,2019,00,00*61
   1677691, $GNVTG,259.996,T,,M,3.1070,N,5.7542,K,A*1F
   1678690, $GPGGA,002758.00,3908.5326966,N,09622.1004152,W,1,18,0.58,330.5041,M,-28.2908,M,,*63
   1678690, $GNGSA,M,3,10,21,01,14,31,11,18,12,25,24,32,,1.08,0.58,0.91*12
   1678690, $GNGSA,M,3,71,81,65,87,73,72,75,,,,,,1.08,0.58,0.91*1C
   1678690, $GPZDA,002758.00,31,08,2019,00,00*6E
   1678690, $GNVTG,261.055,T,,M,2.6489,N,4.9057,K,A*18
   1679691, $GPGGA,002759.00,3908.5324629,N,09622.1012735,W,1,18,0.58,330.4733,M,-28.2908,M,,*67
   1679691, $GNGSA,M,3,10,21,01,14,31,11,18,12,25,24,32,,1.08,0.58,0.91*12
   1679691, $GNGSA,M,3,71,81,65,87,73,72,75,,,,,,1.08,0.58,0.91*1C
   1679691, $GPZDA,002759.00,31,08,2019,00,00*6F
   1679691, $GNVTG,247.523,T,,M,2.6150,N,4.8430,K,A*1D
   1680690, $GPGGA,002800.00,3908.5321800,N,09622.1021477,W,1,18,0.58,330.3966,M,-28.2908,M,,*68
   1680690, $GNGSA,M,3,10,21,01,14,31,11,18,12,25,24,32,,1.08,0.58,0.91*12
   1680690, $GNGSA,M,3,71,81,65,87,73,72,75,,,,,,1.08,0.58,0.91*1C
   1680690, $GPZDA,002800.00,31,08,2019,00,00*6C
   1680690, $GNVTG,241.049,T,,M,2.6655,N,4.9364,K,A*17
   1681690, $GPGGA,002801.00,3908.5319771,N,09622.1030784,W,1,18,0.58,330.2559,M,-28.2908,M,,*65
   1681690, $GNGSA,M,3,10,21,01,14,31,11,18,12,25,24,32,,1.08,0.58,0.91*12
   1681690, $GNGSA,M,3,71,81,65,87,73,72,75,,,,,,1.08,0.58,0.91*1C
   1681690, $GPZDA,002801.00,31,08,2019,00,00*6D
   1681690, $GNVTG,248.899,T,,M,2.5100,N,4.6486,K,A*1B
   1682690, $GPGGA,002802.00,3908.5319485,N,09622.1039312,W,1,19,0.57,330.4124,M,-28.2908,M,,*6A
   1682690, $GNGSA,M,3,10,21,01,14,31,11,20,18,12,25,24,32,1.04,0.57,0.88*1B
   1682690, $GNGSA,M,3,71,81,65,87,73,72,75,,,,,,1.04,0.57,0.88*17
   1682690, $GPZDA,002802.00,31,08,2019,00,00*6E
   1682690, $GNVTG,244.527,T,,M,1.6793,N,3.1100,K,A*18
   1683690, $GPGGA,002803.00,3908.5318867,N,09622.1046726,W,1,18,0.59,330.3773,M,-28.2907,M,,*62
   1683690, $GNGSA,M,3,10,21,01,14,31,11,20,18,12,25,24,32,1.05,0.59,0.88*14
   1683690, $GNGSA,M,3,71,81,65,87,72,75,,,,,,,1.05,0.59,0.88*1C
   1683690, $GPZDA,002803.00,31,08,2019,00,00*6F
   1683690, $GNVTG,271.272,T,,M,2.3285,N,4.3123,K,A*19
   1684691, $GPGGA,002804.00,3908.5319805,N,09622.1055114,W,1,17,0.61,329.8100,M,-28.2907,M,,*60
   1684691, $GNGSA,M,3,10,21,14,31,11,20,18,12,25,24,32,,1.12,0.61,0.94*15
   1684691, $GNGSA,M,3,71,81,65,87,72,75,,,,,,,1.12,0.61,0.94*1C
   1684691, $GPZDA,002804.00,31,08,2019,00,00*68
   1684691, $GNVTG,273.831,T,,M,2.2198,N,4.1111,K,A*1B
   1685690, $GPGGA,002805.00,3908.5318883,N,09622.1061732,W,1,18,0.59,329.7695,M,-28.2907,M,,*6B
   1685690, $GNGSA,M,3,10,21,01,14,31,11,20,18,12,25,24,32,1.05,0.59,0.88*14
   1685690, $GNGSA,M,3,71,81,65,87,72,75,,,,,,,1.05,0.59,0.88*1C
   1685690, $GPZDA,002805.00,31,08,2019,00,00*69
   1685690, $GNVTG,278.453,T,,M,2.0213,N,3.7434,K,A*19
   1686689, $GPGGA,002806.00,3908.5318319,N,09622.1069700,W,1,17,0.61,329.4036,M,-28.2907,M,,*61
   1686689, $GNGSA,M,3,10,21,01,14,31,20,18,12,25,24,32,,1.10,0.61,0.92*10
   1686689, $GNGSA,M,3,71,81,65,87,72,75,,,,,,,1.10,0.61,0.92*18
   1686689, $GPZDA,002806.00,31,08,2019,00,00*6A
   1686689, $GNVTG,258.688,T,,M,2.2709,N,4.2057,K,A*10
   1687690, $GPGGA,002807.00,3908.5316862,N,09622.1077390,W,1,18,0.59,329.2800,M,-28.2907,M,,*64
   1687690, $GNGSA,M,3,10,21,01,14,31,11,20,18,12,25,24,32,1.05,0.59,0.88*14
   1687690, $GNGSA,M,3,71,81,65,87,72,75,,,,,,,1.05,0.59,0.88*1C
   1687690, $GPZDA,002807.00,31,08,2019,00,00*6B
   1687690, $GNVTG,252.075,T,,M,2.3843,N,4.4157,K,A*19
   1688690, $GPGGA,002808.00,3908.5316880,N,09622.1086145,W,1,18,0.59,329.2407,M,-28.2906,M,,*69
   1688690, $GNGSA,M,3,10,21,14,31,11,20,18,12,25,24,32,,1.11,0.59,0.94*1D
   1688690, $GNGSA,M,3,71,81,65,87,73,72,75,,,,,,1.11,0.59,0.94*10
   1688690, $GPZDA,002808.00,31,08,2019,00,00*64
   1688690, $GNVTG,270.206,T,,M,2.6015,N,4.8180,K,A*17
   1689690, $GPGGA,002809.00,3908.5314886,N,09622.1095445,W,1,18,0.59,328.7799,M,-28.2906,M,,*6B
   1689690, $GNGSA,M,3,10,21,14,31,11,20,18,12,25,24,32,,1.11,0.59,0.94*1D
   1689690, $GNGSA,M,3,71,81,65,87,73,72,75,,,,,,1.11,0.59,0.94*10
   1689690, $GPZDA,002809.00,31,08,2019,00,00*65
   1689690, $GNVTG,265.881,T,,M,2.3978,N,4.4407,K,A*17
   1690690, $GPGGA,002810.00,3908.5317543,N,09622.1104586,W,1,19,0.56,328.3427,M,-28.2906,M,,*6F
   1690690, $GNGSA,M,3,10,21,14,31,27,11,20,18,12,25,24,32,1.04,0.56,0.87*11
   1690690, $GNGSA,M,3,71,81,65,87,73,72,75,,,,,,1.04,0.56,0.87*19
   1690690, $GPZDA,002810.00,31,08,2019,00,00*6D
   1690690, $GNVTG,267.179,T,,M,2.2771,N,4.2172,K,A*1C
   1691690, $GPGGA,002811.00,3908.5313856,N,09622.1112888,W,1,19,0.56,328.5547,M,-28.2906,M,,*66
   1691690, $GNGSA,M,3,10,21,14,31,27,11,20,18,12,25,24,32,1.04,0.56,0.87*11
   1691690, $GNGSA,M,3,71,81,65,87,73,72,75,,,,,,1.04,0.56,0.87*19
   1691690, $GPZDA,002811.00,31,08,2019,00,00*6C
   1691690, $GNVTG,279.277,T,,M,2.2612,N,4.1877,K,A*15
   1692690, $GPGGA,002812.00,3908.5317316,N,09622.1118943,W,1,17,0.63,328.4965,M,-28.2906,M,,*67
   1692690, $GNGSA,M,3,10,21,14,31,27,20,18,12,25,32,,,1.13,0.63,0.94*15
   1692690, $GNGSA,M,3,71,81,65,87,73,72,75,,,,,,1.13,0.63,0.94*1B
   1692690, $GPZDA,002812.00,31,08,2019,00,00*6F
   1692690, $GNVTG,286.605,T,,M,2.1735,N,4.0253,K,A*1E
   1693689, $GPGGA,002813.00,3908.5311624,N,09622.1128896,W,1,18,0.60,329.4819,M,-28.2905,M,,*6A
   1693689, $GNGSA,M,3,10,21,14,31,27,20,18,12,25,24,32,,1.10,0.60,0.93*14
   1693689, $GNGSA,M,3,71,81,65,87,73,72,75,,,,,,1.10,0.60,0.93*1C
   1693689, $GPZDA,002813.00,31,08,2019,00,00*6E
   1693689, $GNVTG,276.403,T,,M,2.1186,N,3.9237,K,A*17
   1694690, $GPGGA,002814.00,3908.5307377,N,09622.1136552,W,1,17,0.62,329.5214,M,-28.2905,M,,*68
   1694690, $GNGSA,M,3,10,21,14,27,20,18,12,25,24,32,,,1.11,0.62,0.93*15
   1694690, $GNGSA,M,3,71,81,65,87,73,72,75,,,,,,1.11,0.62,0.93*1F
   1694690, $GPZDA,002814.00,31,08,2019,00,00*69
   1694690, $GNVTG,261.755,T,,M,1.3031,N,2.4133,K,A*16
   1695690, $GPGGA,002815.00,3908.5306869,N,09622.1139260,W,1,17,0.62,329.5060,M,-28.2905,M,,*64
   1695690, $GNGSA,M,3,10,21,14,27,20,18,12,25,24,32,,,1.11,0.62,0.93*15
   1695690, $GNGSA,M,3,71,81,65,87,73,72,75,,,,,,1.11,0.62,0.93*1F
   1695690, $GPZDA,002815.00,31,08,2019,00,00*68
   1695690, $GNVTG,176.306,T,,M,0.1403,N,0.2598,K,A*16
   1696689, $GPGGA,002816.00,3908.5307073,N,09622.1140742,W,1,17,0.62,329.3813,M,-28.2905,M,,*64
   1696689, $GNGSA,M,3,10,21,14,27,20,18,12,25,24,32,,,1.11,0.62,0.93*15
   1696689, $GNGSA,M,3,71,81,65,87,73,72,75,,,,,,1.11,0.62,0.93*1F
   1696689, $GPZDA,002816.00,31,08,2019,00,00*6B
   1696689, $GNVTG,345.156,T,,M,0.4300,N,0.7963,K,A*1F
   1697689, $GPGGA,002817.00,3908.5311844,N,09622.1141286,W,1,17,0.62,329.8144,M,-28.2905,M,,*62
   1697689, $GNGSA,M,3,10,21,14,27,20,18,12,25,24,32,,,1.11,0.62,0.93*15
   1697689, $GNGSA,M,3,71,81,65,87,73,72,75,,,,,,1.11,0.62,0.93*1F
   1697689, $GPZDA,002817.00,31,08,2019,00,00*6A
   1697689, $GNVTG,304.151,T,,M,0.0664,N,0.1230,K,A*15
   1698690, $GPGGA,002818.00,3908.5311733,N,09622.1141760,W,1,16,0.65,329.5822,M,-28.2905,M,,*6D
   1698690, $GNGSA,M,3,10,21,14,31,20,18,12,24,32,,,,1.26,0.65,1.08*15
   1698690, $GNGSA,M,3,71,81,65,87,73,72,75,,,,,,1.26,0.65,1.08*1F
   1698690, $GPZDA,002818.00,31,08,2019,00,00*65
   1698690, $GNVTG,120.273,T,,M,0.0972,N,0.1799,K,A*1C
   1699690, $GPGGA,002819.00,3908.5311150,N,09622.1142468,W,1,19,0.56,329.8030,M,-28.2905,M,,*6E
   1699690, $GNGSA,M,3,10,21,14,31,27,20,18,11,12,25,24,32,1.04,0.56,0.87*11
   1699690, $GNGSA,M,3,71,81,65,87,73,72,75,,,,,,1.04,0.56,0.87*19
   1699690, $GPZDA,002819.00,31,08,2019,00,00*64
   1699690, $GNVTG,357.067,T,,M,0.1465,N,0.2713,K,A*12
   1700690, $GPGGA,002820.00,3908.5312327,N,09622.1140784,W,1,20,0.54,329.6385,M,-28.2905,M,,*6D
   1700690, $GNGSA,M,3,10,21,14,31,27,01,20,18,11,12,25,24,0.99,0.54,0.83*12
   1700690, $GNGSA,M,3,71,81,65,87,73,72,75,,,,,,0.99,0.54,0.83*1A
   1700690, $GPZDA,002820.00,31,08,2019,00,00*6E
   1700690, $GNVTG,292.961,T,,M,0.1137,N,0.2106,K,A*15
   1701690, $GPGGA,002821.00,3908.5312024,N,09622.1140172,W,1,20,0.54,329.7356,M,-28.2905,M,,*6C
   1701690, $GNGSA,M,3,10,21,14,31,27,01,20,18,11,12,25,24,0.99,0.54,0.83*12
   1701690, $GNGSA,M,3,71,81,65,87,73,72,75,,,,,,0.99,0.54,0.83*1A
   1701690, $GPZDA,002821.00,31,08,2019,00,00*6F
   1701690, $GNVTG,202.247,T,,M,0.1252,N,0.2320,K,A*15
   1702690, $GPGGA,002822.00,3908.5311733,N,09622.1139745,W,1,20,0.54,329.7385,M,-28.2905,M,,*6F
   1702690, $GNGSA,M,3,10,21,14,31,27,01,20,18,11,12,25,24,0.99,0.54,0.83*12
   1702690, $GNGSA,M,3,71,81,65,87,73,72,75,,,,,,0.99,0.54,0.83*1A
   1702690, $GPZDA,002822.00,31,08,2019,00,00*6C
   1702690, $GNVTG,206.546,T,,M,0.1002,N,0.1855,K,A*1A
   1703689, $GPGGA,002823.00,3908.5312722,N,09622.1139183,W,1,18,0.58,329.8810,M,-28.2905,M,,*6E
   1703689, $GNGSA,M,3,10,14,31,27,20,18,11,12,25,24,32,,1.05,0.58,0.88*12
   1703689, $GNGSA,M,3,71,81,65,87,73,72,75,,,,,,1.05,0.58,0.88*19
   1703689, $GPZDA,002823.00,31,08,2019,00,00*6D
   1703689, $GNVTG,123.885,T,,M,0.1842,N,0.3412,K,A*1D
   1704691, $GPGGA,002824.00,3908.5309196,N,09622.1138756,W,1,20,0.54,329.0366,M,-28.2905,M,,*60
   1704691, $GNGSA,M,3,10,21,14,31,27,01,20,18,11,12,25,24,0.99,0.54,0.83*12
   1704691, $GNGSA,M,3,71,81,65,87,73,72,75,,,,,,0.99,0.54,0.83*1A
   1704691, $GPZDA,002824.00,31,08,2019,00,00*6A
   1704691, $GNVTG,228.826,T,,M,0.1121,N,0.2076,K,A*17
   1705690, $GPGGA,002825.00,3908.5310170,N,09622.1135331,W,1,18,0.58,329.6487,M,-28.2905,M,,*60
   1705690, $GNGSA,M,3,10,21,14,31,27,20,18,11,12,24,32,,1.07,0.58,0.90*1D
   1705690, $GNGSA,M,3,71,81,65,87,73,72,75,,,,,,1.07,0.58,0.90*12
   1705690, $GPZDA,002825.00,31,08,2019,00,00*6B
   1705690, $GNVTG,351.395,T,,M,0.2502,N,0.4633,K,A*1C
   1706690, $GPGGA,002826.00,3908.5310378,N,09622.1135898,W,1,18,0.58,329.6072,M,-28.2905,M,,*6F
   1706690, $GNGSA,M,3,10,21,14,31,27,20,18,11,12,24,32,,1.07,0.58,0.90*1D
   1706690, $GNGSA,M,3,71,81,65,87,73,72,75,,,,,,1.07,0.58,0.90*12
   1706690, $GPZDA,002826.00,31,08,2019,00,00*68
   1706690, $GNVTG,101.903,T,,M,0.0780,N,0.1444,K,A*13
   1707689, $GPGGA,002827.00,3908.5313139,N,09622.1140167,W,1,16,0.62,329.3684,M,-28.2905,M,,*6C
   1707689, $GNGSA,M,3,10,14,31,27,18,11,12,24,32,,,,1.13,0.62,0.94*14
   1707689, $GNGSA,M,3,71,81,65,87,73,72,75,,,,,,1.13,0.62,0.94*1A
   1707689, $GPZDA,002827.00,31,08,2019,00,00*69
   1707689, $GNVTG,181.896,T,,M,0.2156,N,0.3992,K,A*1D
   1708689, $GPGGA,002828.00,3908.5314084,N,09622.1139199,W,1,18,0.57,329.9480,M,-28.2905,M,,*68
   1708689, $GNGSA,M,3,10,21,14,31,27,18,11,12,25,24,32,,1.07,0.57,0.91*16
   1708689, $GNGSA,M,3,71,81,65,87,73,72,75,,,,,,1.07,0.57,0.91*1C
   1708689, $GPZDA,002828.00,31,08,2019,00,00*66
   1708689, $GNVTG,242.413,T,,M,0.3480,N,0.6446,K,A*1E
