
   1744689, $GPGGA,002904.00,3908.5284157,N,09622.1151021,W,1,14,0.66,329.2511,M,-28.2905,M,,*60
   1744689, $GNGSA,M,3,10,31,27,20,18,11,12,24,32,,,,1.20,0.66,1.00*1B
   1744689, $GNGSA,M,3,81,65,87,72,75,,,,,,,,1.20,0.66,1.00*10
   1744689, $GPZDA,002904.00,31,08,2019,00,00*69
   1744689, $GNVTG,088.081,T,,M,1.6489,N,3.0537,K,A*1A
   1745690, $GPGGA,002905.00,3908.5283500,N,09622.1143945,W,1,14,0.66,329.3796,M,-28.2905,M,,*64
   1745690, $GNGSA,M,3,10,31,27,20,18,11,12,24,32,,,,1.20,0.66,1.00*1B
   1745690, $GNGSA,M,3,81,65,87,72,75,,,,,,,,1.20,0.66,1.00*10
   1745690, $GPZDA,002905.00,31,08,2019,00,00*68
   1745690, $GNVTG,080.218,T,,M,2.2212,N,4.1137,K,A*11
   1746689, $GPGGA,002906.00,3908.5285094,N,09622.1134855,W,1,14,0.67,329.6912,M,-28.2905,M,,*6F
   1746689, $GNGSA,M,3,10,31,27,20,18,12,24,08,32,,,,1.20,0.67,1.00*12
   1746689, $GNGSA,M,3,81,65,87,72,75,,,,,,,,1.20,0.67,1.00*11
   1746689, $GPZDA,002906.00,31,08,2019,00,00*6B
   1746689, $GNVTG,085.489,T,,M,2.4239,N,4.4890,K,A*14
   1747689, $GPGGA,002907.00,3908.5281962,N,09622.1126011,W,1,14,0.66,330.0181,M,-28.2905,M,,*6C
   1747689, $GNGSA,M,3,10,31,27,20,18,11,12,24,32,,,,1.20,0.66,1.00*1B
   1747689, $GNGSA,M,3,81,65,87,72,75,,,,,,,,1.20,0.66,1.00*10
   1747689, $GPZDA,002907.00,31,08,2019,00,00*6A
   1747689, $GNVTG,091.140,T,,M,2.3959,N,4.4373,K,A*1D
   1748690, $GPGGA,002908.00,3908.5280567,N,09622.1114535,W,1,15,0.64,330.1372,M,-28.2905,M,,*65
   1748690, $GNGSA,M,3,10,31,27,20,18,11,12,24,08,32,,,1.17,0.64,0.98*15
   1748690, $GNGSA,M,3,81,65,87,72,75,,,,,,,,1.17,0.64,0.98*16
   1748690, $GPZDA,002908.00,31,08,2019,00,00*65
   1748690, $GNVTG,093.895,T,,M,2.3448,N,4.3426,K,A*13
   1749689, $GPGGA,002909.00,3908.5282218,N,09622.1105582,W,1,15,0.64,330.0578,M,-28.2906,M,,*6B
   1749689, $GNGSA,M,3,10,31,27,20,18,11,12,24,08,32,,,1.17,0.64,0.98*15
   1749689, $GNGSA,M,3,81,65,87,72,75,,,,,,,,1.17,0.64,0.98*16
   1749689, $GPZDA,002909.00,31,08,2019,00,00*64
   1749689, $GNVTG,097.074,T,,M,2.8864,N,5.3457,K,A*1E
   1750689, $GPGGA,002910.00,3908.5283674,N,09622.1096204,W,1,14,0.67,329.6193,M,-28.2906,M,,*63
   1750689, $GNGSA,M,3,10,31,27,20,18,12,24,08,32,,,,1.20,0.67,1.00*12
   1750689, $GNGSA,M,3,81,65,87,72,75,,,,,,,,1.20,0.67,1.00*11
   1750689, $GPZDA,002910.00,31,08,2019,00,00*6C
   1750689, $GNVTG,088.357,T,,M,2.8546,N,5.2868,K,A*1E
   1751689, $GPGGA,002911.00,3908.5283989,N,09622.1087822,W,1,14,0.66,329.6550,M,-28.2906,M,,*6B
   1751689, $GNGSA,M,3,10,31,27,20,18,11,12,24,32,,,,1.20,0.66,1.00*1B
   1751689, $GNGSA,M,3,81,65,87,72,75,,,,,,,,1.20,0.66,1.00*10
   1751689, $GPZDA,002911.00,31,08,2019,00,00*6D
   1751689, $GNVTG,079.570,T,,M,2.6265,N,4.8642,K,A*16
   1752689, $GPGGA,002912.00,3908.5285284,N,09622.1077589,W,1,14,0.66,329.5712,M,-28.2906,M,,*6C
   1752689, $GNGSA,M,3,10,31,27,20,18,11,12,24,32,,,,1.20,0.66,1.00*1B
   1752689, $GNGSA,M,3,81,65,87,72,75,,,,,,,,1.20,0.66,1.00*10
   1752689, $GPZDA,002912.00,31,08,2019,00,00*6E
   1752689, $GNVTG,080.951,T,,M,2.8098,N,5.2038,K,A*11
   1753689, $GPGGA,002913.00,3908.5285721,N,09622.1066661,W,1,14,0.66,329.5323,M,-28.2906,M,,*64
   1753689, $GNGSA,M,3,10,31,27,20,18,11,12,24,32,,,,1.20,0.66,1.00*1B
   1753689, $GNGSA,M,3,81,65,87,72,75,,,,,,,,1.20,0.66,1.00*10
   1753689, $GPZDA,002913.00,31,08,2019,00,00*6F
   1753689, $GNVTG,079.284,T,,M,2.7958,N,5.1778,K,A*1E
   1754689, $GPGGA,002914.00,3908.5285724,N,09622.1059591,W,1,14,0.66,330.5457,M,-28.2906,M,,*6A
   1754689, $GNGSA,M,3,10,31,27,20,18,11,12,24,32,,,,1.20,0.66,1.00*1B
   1754689, $GNGSA,M,3,81,65,87,72,75,,,,,,,,1.20,0.66,1.00*10
   1754689, $GPZDA,002914.00,31,08,2019,00,00*68
   1754689, $GNVTG,077.211,T,,M,3.1761,N,5.8822,K,A*16
   1755690, $GPGGA,002915.00,3908.5285572,N,09622.1050510,W,1,14,0.66,330.3465,M,-28.2906,M,,*6D
   1755690, $GNGSA,M,3,10,31,27,20,18,11,12,24,32,,,,1.20,0.66,1.00*1B
   1755690, $GNGSA,M,3,81,65,87,72,75,,,,,,,,1.20,0.66,1.00*10
   1755690, $GPZDA,002915.00,31,08,2019,00,00*69
   1755690, $GNVTG,079.610,T,,M,3.1849,N,5.8984,K,A*15
   1756689, $GPGGA,002916.00,3908.5287389,N,09622.1036852,W,1,14,0.66,329.6534,M,-28.2906,M,,*6D
   1756689, $GNGSA,M,3,10,31,27,20,18,11,12,24,32,,,,1.20,0.66,1.00*1B
   1756689, $GNGSA,M,3,81,65,87,72,75,,,,,,,,1.20,0.66,1.00*10
   1756689, $GPZDA,002916.00,31,08,2019,00,00*6A
   1756689, $GNVTG,080.390,T,,M,2.2241,N,4.1191,K,A*1A
   1757689, $GPGGA,002917.00,3908.5290842,N,09622.1026677,W,1,16,0.62,329.9411,M,-28.2906,M,,*61
   1757689, $GNGSA,M,3,10,31,27,20,18,11,12,24,08,32,,,1.14,0.62,0.96*1E
   1757689, $GNGSA,M,3,73,81,65,87,72,75,,,,,,,1.14,0.62,0.96*19
   1757689, $GPZDA,002917.00,31,08,2019,00,00*6B
   1757689, $GNVTG,082.677,T,,M,2.2953,N,4.2509,K,A*1A
   1758689, $GPGGA,002918.00,3908.5291993,N,09622.1015669,W,1,16,0.62,330.1360,M,-28.2906,M,,*6C
   1758689, $GNGSA,M,3,10,31,27,20,18,11,12,24,08,32,,,1.14,0.62,0.96*1E
   1758689, $GNGSA,M,3,73,81,65,87,72,75,,,,,,,1.14,0.62,0.96*19
   1758689, $GPZDA,002918.00,31,08,2019,00,00*64
   1758689, $GNVTG,081.470,T,,M,2.8778,N,5.3298,K,A*1E
   1759690, $GPGGA,002919.00,3908.5297299,N,09622.1007944,W,1,17,0.59,330.9149,M,-28.2907,M,,*60
   1759690, $GNGSA,M,3,10,31,27,20,18,11,12,21,24,08,32,,1.11,0.59,0.95*13
   1759690, $GNGSA,M,3,73,81,65,87,72,75,,,,,,,1.11,0.59,0.95*17
   1759690, $GPZDA,002919.00,31,08,2019,00,00*65
   1759690, $GNVTG,080.021,T,,M,2.9094,N,5.3882,K,A*1A
   1760690, $GPGGA,002920.00,3908.5299659,N,09622.1000918,W,1,17,0.59,331.4001,M,-28.2907,M,,*63
   1760690, $GNGSA,M,3,10,31,27,20,18,11,12,21,24,08,32,,1.11,0.59,0.95*13
   1760690, $GNGSA,M,3,73,81,65,87,72,75,,,,,,,1.11,0.59,0.95*17
   1760690, $GPZDA,002920.00,31,08,2019,00,00*6F
   1760690, $GNVTG,079.032,T,,M,2.8595,N,5.2958,K,A*1C
   1761689, $GPGGA,002921.00,3908.5302021,N,09622.0991885,W,1,17,0.59,331.3026,M,-28.2907,M,,*6F
   1761689, $GNGSA,M,3,10,31,27,20,18,11,12,21,24,08,32,,1.11,0.59,0.95*13
   1761689, $GNGSA,M,3,73,81,65,87,72,75,,,,,,,1.11,0.59,0.95*17
   1761689, $GPZDA,002921.00,31,08,2019,00,00*6E
   1761689, $GNVTG,066.257,T,,M,2.8287,N,5.2387,K,A*1F
   1762689, $GPGGA,002922.00,3908.5307122,N,09622.0984192,W,1,17,0.59,330.9322,M,-28.2907,M,,*6C
   1762689, $GNGSA,M,3,10,31,27,20,18,11,12,21,24,08,32,,1.11,0.59,0.95*13
   1762689, $GNGSA,M,3,73,81,65,87,72,75,,,,,,,1.11,0.59,0.95*17
   1762689, $GPZDA,002922.00,31,08,2019,00,00*6D
   1762689, $GNVTG,059.610,T,,M,2.7278,N,5.0518,K,A*19
   1763689, $GPGGA,002923.00,3908.5309623,N,09622.0979040,W,1,16,0.65,331.7116,M,-28.2907,M,,*6D
   1763689, $GNGSA,M,3,10,31,27,20,18,11,21,24,08,32,,,1.23,0.65,1.04*17
   1763689, $GNGSA,M,3,73,81,65,87,72,75,,,,,,,1.23,0.65,1.04*10
   1763689, $GPZDA,002923.00,31,08,2019,00,00*6C
   1763689, $GNVTG,065.641,T,,M,2.7991,N,5.1840,K,A*1F
   1764689, $GPGGA,002924.00,3908.5312977,N,09622.0966258,W,1,17,0.59,330.9706,M,-28.2908,M,,*62
   1764689, $GNGSA,M,3,10,31,27,20,18,11,12,21,24,08,32,,1.11,0.59,0.95*13
   1764689, $GNGSA,M,3,73,81,65,87,72,75,,,,,,,1.11,0.59,0.95*17
   1764689, $GPZDA,002924.00,31,08,2019,00,00*6B
   1764689, $GNVTG,059.104,T,,M,2.9731,N,5.5062,K,A*10
   1765689, $GPGGA,002925.00,3908.5314961,N,09622.0960550,W,1,16,0.65,331.7324,M,-28.2908,M,,*6E
   1765689, $GNGSA,M,3,10,31,27,20,18,11,21,24,08,32,,,1.23,0.65,1.04*17
   1765689, $GNGSA,M,3,73,81,65,87,72,75,,,,,,,1.23,0.65,1.04*10
   1765689, $GPZDA,002925.00,31,08,2019,00,00*6A
   1765689, $GNVTG,058.711,T,,M,2.8833,N,5.3399,K,A*1E
   1766690, $GPGGA,002926.00,3908.5317376,N,09622.0950879,W,1,16,0.65,331.7588,M,-28.2908,M,,*67
   1766690, $GNGSA,M,3,10,31,27,20,18,11,21,24,08,32,,,1.23,0.65,1.04*17
   1766690, $GNGSA,M,3,73,81,65,87,72,75,,,,,,,1.23,0.65,1.04*10
   1766690, $GPZDA,002926.00,31,08,2019,00,00*69
   1766690, $GNVTG,065.770,T,,M,2.8762,N,5.3268,K,A*13
   1767690, $GPGGA,002927.00,3908.5320732,N,09622.0942948,W,1,16,0.65,331.7553,M,-28.2908,M,,*60
   1767690, $GNGSA,M,3,10,31,27,20,18,11,21,24,08,32,,,1.23,0.65,1.04*17
   1767690, $GNGSA,M,3,73,81,65,87,72,75,,,,,,,1.23,0.65,1.04*10
   1767690, $GPZDA,002927.00,31,08,2019,00,00*68
   1767690, $GNVTG,064.952,T,,M,2.6698,N,4.9444,K,A*15
   1768689, $GPGGA,002928.00,3908.5324538,N,09622.0934132,W,1,16,0.64,331.4181,M,-28.2908,M,,*6E
   1768689, $GNGSA,M,3,10,14,31,20,18,11,21,24,08,32,,,1.20,0.64,1.01*10
   1768689, $GNGSA,M,3,73,81,65,87,72,75,,,,,,,1.20,0.64,1.01*17
   1768689, $GPZDA,002928.00,31,08,2019,00,00*67
   1768689, $GNVTG,063.181,T,,M,2.9421,N,5.4488,K,A*17
   1769689, $GPGGA,002929.00,3908.5327344,N,09622.0923119,W,1,16,0.64,331.3063,M,-28.2909,M,,*65
   1769689, $GNGSA,M,3,10,14,31,20,18,11,21,24,08,32,,,1.20,0.64,1.01*10
   1769689, $GNGSA,M,3,73,81,65,87,72,75,,,,,,,1.20,0.64,1.01*17
   1769689, $GPZDA,002929.00,31,08,2019,00,00*66
   1769689, $GNVTG,079.144,T,,M,2.5400,N,4.7042,K,A*1A
   1770690, $GPGGA,002930.00,3908.5331507,N,09622.0916389,W,1,16,0.64,331.3683,M,-28.2909,M,,*6E
   1770690, $GNGSA,M,3,10,14,31,20,18,11,21,24,08,32,,,1.20,0.64,1.01*10
   1770690, $GNGSA,M,3,73,81,65,87,72,75,,,,,,,1.20,0.64,1.01*17
   1770690, $GPZDA,002930.00,31,08,2019,00,00*6E
   1770690, $GNVTG,057.766,T,,M,2.9151,N,5.3987,K,A*18
   1771689, $GPGGA,002931.00,3908.5334975,N,09622.0907950,W,1,15,0.68,330.2748,M,-28.2909,M,,*64
   1771689, $GNGSA,M,3,10,14,31,20,18,11,24,08,32,,,,1.27,0.68,1.08*11
   1771689, $GNGSA,M,3,73,81,65,87,72,75,,,,,,,1.27,0.68,1.08*15
   1771689, $GPZDA,002931.00,31,08,2019,00,00*6F
   1771689, $GNVTG,056.887,T,,M,2.7626,N,5.1163,K,A*10
   1772689, $GPGGA,002932.00,3908.5336264,N,09622.0896911,W,1,14,0.70,331.7176,M,-28.2909,M,,*65
   1772689, $GNGSA,M,3,10,14,31,20,11,24,08,32,,,,,1.28,0.70,1.08*1E
   1772689, $GNGSA,M,3,73,81,65,87,72,75,,,,,,,1.28,0.70,1.08*13
   1772689, $GPZDA,002932.00,31,08,2019,00,00*6C
   1772689, $GNVTG,049.995,T,,M,2.8103,N,5.2048,K,A*18
   1773690, $GPGGA,002933.00,3908.5343904,N,09622.0886594,W,1,15,0.65,331.0232,M,-28.2909,M,,*6A
   1773690, $GNGSA,M,3,10,14,31,20,11,12,24,08,32,,,,1.16,0.65,0.96*12
   1773690, $GNGSA,M,3,73,81,65,87,72,75,,,,,,,1.16,0.65,0.96*1C
   1773690, $GPZDA,002933.00,31,08,2019,00,00*6D
   1773690, $GNVTG,044.620,T,,M,3.1125,N,5.7644,K,A*17
   1774689, $GPGGA,002934.00,3908.5352375,N,09622.0881187,W,1,16,0.61,332.1900,M,-28.2910,M,,*67
   1774689, $GNGSA,M,3,10,14,31,20,11,12,21,24,08,32,,,1.12,0.61,0.93*14
   1774689, $GNGSA,M,3,73,81,65,87,72,75,,,,,,,1.12,0.61,0.93*19
   1774689, $GPZDA,002934.00,31,08,2019,00,00*6A
   1774689, $GNVTG,040.769,T,,M,2.6110,N,4.8355,K,A*14
   1775690, $GPGGA,002935.00,3908.5357311,N,09622.0872733,W,1,17,0.60,332.2347,M,-28.2910,M,,*6E
   1775690, $GNGSA,M,3,10,14,31,27,20,11,12,21,24,08,32,,1.07,0.60,0.89*1F
   1775690, $GNGSA,M,3,73,81,65,87,72,75,,,,,,,1.07,0.60,0.89*17
   1775690, $GPZDA,002935.00,31,08,2019,00,00*6B
   1775690, $GNVTG,046.623,T,,M,2.6381,N,4.8857,K,A*1E
   1776689, $GPGGA,002936.00,3908.5362330,N,09622.0864060,W,1,17,0.60,332.0459,M,-28.2910,M,,*64
   1776689, $GNGSA,M,3,10,14,31,27,20,11,12,21,24,08,32,,1.07,0.60,0.89*1F
   1776689, $GNGSA,M,3,73,81,65,87,72,75,,,,,,,1.07,0.60,0.89*17
   1776689, $GPZDA,002936.00,31,08,2019,00,00*68
   1776689, $GNVTG,048.799,T,,M,2.9227,N,5.4129,K,A*1F
   1777690, $GPGGA,002937.00,3908.5373680,N,09622.0851066,W,1,15,0.65,330.0271,M,-28.2910,M,,*62
   1777690, $GNGSA,M,3,10,14,31,20,11,12,21,08,32,,,,1.15,0.65,0.94*16
   1777690, $GNGSA,M,3,73,81,65,87,72,75,,,,,,,1.15,0.65,0.94*1D
   1777690, $GPZDA,002937.00,31,08,2019,00,00*69
   1777690, $GNVTG,050.436,T,,M,2.7831,N,5.1543,K,A*1E
   1778689, $GPGGA,002938.00,3908.5377724,N,09622.0841467,W,1,15,0.67,330.3539,M,-28.2910,M,,*68
   1778689, $GNGSA,M,3,10,14,31,01,20,11,12,21,08,32,,,1.13,0.67,0.91*16
   1778689, $GNGSA,M,3,81,65,87,72,75,,,,,,,,1.13,0.67,0.91*18
   1778689, $GPZDA,002938.00,31,08,2019,00,00*66
   1778689, $GNVTG,053.106,T,,M,2.5513,N,4.7251,K,A*17
   1779688, $GPGGA,002939.00,3908.5382183,N,09622.0833330,W,1,15,0.67,330.5528,M,-28.2911,M,,*6F
   1779688, $GNGSA,M,3,10,14,31,01,20,11,12,21,08,32,,,1.13,0.67,0.91*16
   1779688, $GNGSA,M,3,81,65,87,72,75,,,,,,,,1.13,0.67,0.91*18
   1779688, $GPZDA,002939.00,31,08,2019,00,00*67
   1779688, $GNVTG,050.720,T,,M,2.9916,N,5.5404,K,A*16
   1780689, $GPGGA,002940.00,3908.5388184,N,09622.0826071,W,1,15,0.67,330.5615,M,-28.2911,M,,*63
   1780689, $GNGSA,M,3,10,14,31,27,20,11,12,21,08,32,,,1.14,0.67,0.92*16
   1780689, $GNGSA,M,3,81,65,87,72,75,,,,,,,,1.14,0.67,0.92*1C
   1780689, $GPZDA,002940.00,31,08,2019,00,00*69
   1780689, $GNVTG,050.588,T,,M,2.8653,N,5.3066,K,A*1F
   1781689, $GPGGA,002941.00,3908.5395126,N,09622.0819530,W,1,16,0.64,330.3518,M,-28.2911,M,,*62
   1781689, $GNGSA,M,3,10,14,31,27,01,20,11,12,21,08,32,,1.09,0.64,0.88*13
   1781689, $GNGSA,M,3,81,65,87,72,75,,,,,,,,1.09,0.64,0.88*18
   1781689, $GPZDA,002941.00,31,08,2019,00,00*68
   1781689, $GNVTG,051.088,T,,M,3.1300,N,5.7967,K,A*1C
   1782690, $GPGGA,002942.00,3908.5398463,N,09622.0817099,W,1,17,0.59,331.1043,M,-28.2911,M,,*67
   1782690, $GNGSA,M,3,10,14,31,27,01,20,11,12,21,24,08,32,1.06,0.59,0.87*1B
   1782690, $GNGSA,M,3,81,65,87,72,75,,,,,,,,1.06,0.59,0.87*16
   1782690, $GPZDA,002942.00,31,08,2019,00,00*6B
   1782690, $GNVTG,047.996,T,,M,2.8781,N,5.3302,K,A*15
   1783689, $GPGGA,002943.00,3908.5402514,N,09622.0808230,W,1,16,0.62,331.4182,M,-28.2911,M,,*6C
   1783689, $GNGSA,M,3,10,14,31,01,20,11,12,21,24,08,32,,1.09,0.62,0.90*1F
   1783689, $GNGSA,M,3,81,65,87,72,75,,,,,,,,1.09,0.62,0.90*17
   1783689, $GPZDA,002943.00,31,08,2019,00,00*6A
   1783689, $GNVTG,041.484,T,,M,2.9084,N,5.3864,K,A*15
   1784689, $GPGGA,002944.00,3908.5409443,N,09622.0798054,W,1,17,0.61,331.0973,M,-28.2912,M,,*66
   1784689, $GNGSA,M,3,10,14,31,27,01,25,20,11,12,21,08,32,1.04,0.61,0.84*10
   1784689, $GNGSA,M,3,81,65,87,72,75,,,,,,,,1.04,0.61,0.84*1C
   1784689, $GPZDA,002944.00,31,08,2019,00,00*6D
   1784689, $GNVTG,041.502,T,,M,3.0289,N,5.6095,K,A*1E
   1785689, $GPGGA,002945.00,3908.5414835,N,09622.0791668,W,1,17,0.60,331.1412,M,-28.2912,M,,*6C
   1785689, $GNGSA,M,3,10,14,31,01,25,20,11,12,21,24,08,32,1.05,0.60,0.86*11
   1785689, $GNGSA,M,3,81,65,87,72,75,,,,,,,,1.05,0.60,0.86*1E
   1785689, $GPZDA,002945.00,31,08,2019,00,00*6C
   1785689, $GNVTG,035.573,T,,M,2.8114,N,5.2067,K,A*1C
   1786690, $GPGGA,002946.00,3908.5420445,N,09622.0788604,W,1,16,0.66,331.2801,M,-28.2912,M,,*6B
   1786690, $GNGSA,M,3,10,14,31,01,25,20,18,11,21,24,08,32,1.13,0.66,0.92*1F
   1786690, $GNGSA,M,3,81,65,87,75,,,,,,,,,1.13,0.66,0.92*1F
   1786690, $GPZDA,002946.00,31,08,2019,00,00*6F
   1786690, $GNVTG,030.603,T,,M,2.7433,N,5.0806,K,A*1F
   1787689, $GPGGA,002947.00,3908.5424758,N,09622.0781656,W,1,17,0.63,331.3367,M,-28.2912,M,,*61
   1787689, $GNGSA,M,3,10,14,31,01,25,20,18,11,21,24,08,32,1.10,0.63,0.90*1B
   1787689, $GNGSA,M,3,81,65,87,72,75,,,,,,,,1.10,0.63,0.90*1E
   1787689, $GPZDA,002947.00,31,08,2019,00,00*6E
   1787689, $GNVTG,043.387,T,,M,2.5232,N,4.6730,K,A*1A
   1788689, $GPGGA,002948.00,3908.5429854,N,09622.0773345,W,1,18,0.62,331.4308,M,-28.2912,M,,*6A
   1788689, $GNGSA,M,3,10,14,31,01,25,20,18,11,21,24,08,32,1.09,0.62,0.90*12
   1788689, $GNGSA,M,3,81,65,87,72,75,88,,,,,,,1.09,0.62,0.90*17
   1788689, $GPZDA,002948.00,31,08,2019,00,00*61
   1788689, $GNVTG,049.161,T,,M,2.8785,N,5.3310,K,A*1C
   1789690, $GPGGA,002949.00,3908.5434042,N,09622.0766649,W,1,17,0.66,332.0011,M,-28.2912,M,,*62
   1789690, $GNGSA,M,3,10,14,31,01,25,20,18,11,21,24,08,32,1.12,0.66,0.90*1C
   1789690, $GNGSA,M,3,81,65,72,75,88,,,,,,,,1.12,0.66,0.90*16
   1789690, $GPZDA,002949.00,31,08,2019,00,00*60
   1789690, $GNVTG,049.473,T,,M,2.8867,N,5.3461,K,A*18
   1790689, $GPGGA,002950.00,3908.5440506,N,09622.0761824,W,1,15,0.69,331.7803,M,-28.2913,M,,*6D
   1790689, $GNGSA,M,3,10,14,31,20,11,21,24,08,32,,,,1.23,0.69,1.02*14
   1790689, $GNGSA,M,3,81,65,87,72,75,88,,,,,,,1.23,0.69,1.02*1E
   1790689, $GPZDA,002950.00,31,08,2019,00,00*68
   1790689, $GNVTG,052.580,T,,M,2.5899,N,4.7965,K,A*1F
   1791688, $GPGGA,002951.00,3908.5445938,N,09622.0755882,W,1,15,0.69,331.6912,M,-28.2913,M,,*63
   1791688, $GNGSA,M,3,10,14,31,20,11,21,24,08,32,,,,1.23,0.69,1.02*14
   1791688, $GNGSA,M,3,81,65,87,72,75,88,,,,,,,1.23,0.69,1.02*1E
   1791688, $GPZDA,002951.00,31,08,2019,00,00*69
   1791688, $GNVTG,039.136,T,,M,2.5727,N,4.7646,K,A*1F
   1792689, $GPGGA,002952.00,3908.5451173,N,09622.0751093,W,1,15,0.69,331.6633,M,-28.2913,M,,*62
   1792689, $GNGSA,M,3,10,14,31,20,11,21,24,08,32,,,,1.23,0.69,1.02*14
   1792689, $GNGSA,M,3,81,65,87,72,75,88,,,,,,,1.23,0.69,1.02*1E
   1792689, $GPZDA,002952.00,31,08,2019,00,00*6A
   1792689, $GNVTG,025.555,T,,M,2.2149,N,4.1020,K,A*1A
   1793690, $GPGGA,002953.00,3908.5458622,N,09622.0745067,W,1,15,0.69,331.6876,M,-28.2913,M,,*68
   1793690, $GNGSA,M,3,10,14,25,20,11,21,24,08,32,,,,1.17,0.69,0.94*18
   1793690, $GNGSA,M,3,81,65,87,72,75,88,,,,,,,1.17,0.69,0.94*17
   1793690, $GPZDA,002953.00,31,08,2019,00,00*6B
   1793690, $GNVTG,023.851,T,,M,2.1834,N,4.0437,K,A*16
   1794690, $GPGGA,002954.00,3908.5457884,N,09622.0743661,W,1,14,0.72,332.3999,M,-28.2913,M,,*69
   1794690, $GNGSA,M,3,10,14,31,20,11,21,24,08,32,,,,1.32,0.72,1.11*1C
   1794690, $GNGSA,M,3,65,87,72,75,88,,,,,,,,1.32,0.72,1.11*1F
   1794690, $GPZDA,002954.00,31,08,2019,00,00*6C
   1794690, $GNVTG,340.856,T,,M,1.3400,N,2.4816,K,A*10
   1795688, $GPGGA,002955.00,3908.5460425,N,09622.0749177,W,1,15,0.69,332.4611,M,-28.2913,M,,*62
   1795688, $GNGSA,M,3,10,14,31,20,18,11,21,24,08,32,,,1.24,0.69,1.03*1B
   1795688, $GNGSA,M,3,81,65,87,72,75,,,,,,,,1.24,0.69,1.03*18
   1795688, $GPZDA,002955.00,31,08,2019,00,00*6D
   1795688, $GNVTG,281.004,T,,M,1.0571,N,1.9578,K,A*1C
   1796689, $GPGGA,002956.00,3908.5459082,N,09622.0754094,W,1,16,0.68,332.3064,M,-28.2913,M,,*63
   1796689, $GNGSA,M,3,10,14,31,20,18,11,21,24,08,32,,,1.22,0.68,1.02*1D
   1796689, $GNGSA,M,3,73,81,65,87,72,88,,,,,,,1.22,0.68,1.02*18
   1796689, $GPZDA,002956.00,31,08,2019,00,00*6E
   1796689, $GNVTG,245.678,T,,M,2.1037,N,3.8961,K,A*1B
   1797689, $GPGGA,002957.00,3908.5455959,N,09622.0757373,W,1,15,0.69,331.9479,M,-28.2913,M,,*6B
   1797689, $GNGSA,M,3,10,14,31,20,18,11,21,24,08,32,,,1.24,0.69,1.03*1B
   1797689, $GNGSA,M,3,73,81,65,87,72,,,,,,,,1.24,0.69,1.03*1E
   1797689, $GPZDA,002957.00,31,08,2019,00,00*6F
   1797689, $GNVTG,221.213,T,,M,2.3135,N,4.2845,K,A*1B
   1798689, $GPGGA,002958.00,3908.5451835,N,09622.0760556,W,1,17,0.62,331.5909,M,-28.2913,M,,*61
   1798689, $GNGSA,M,3,10,14,31,20,18,11,21,24,08,32,,,1.18,0.62,1.00*1C
   1798689, $GNGSA,M,3,73,81,65,87,72,75,88,,,,,,1.18,0.62,1.00*1B
   1798689, $GPZDA,002958.00,31,08,2019,00,00*60
   1798689, $GNVTG,228.674,T,,M,1.9616,N,3.6328,K,A*1B
   1799689, $GPGGA,002959.00,3908.5448532,N,09622.0765777,W,1,16,0.68,331.4853,M,-28.2913,M,,*62
   1799689, $GNGSA,M,3,10,14,31,20,18,11,21,24,08,32,,,1.22,0.68,1.02*1D
   1799689, $GNGSA,M,3,73,81,65,87,72,88,,,,,,,1.22,0.68,1.02*18
   1799689, $GPZDA,002959.00,31,08,2019,00,00*61
   1799689, $GNVTG,230.022,T,,M,2.2884,N,4.2381,K,A*1A
   1800690, $GPGGA,003000.00,3908.5443849,N,09622.0772562,W,1,15,0.74,331.3967,M,-28.2913,M,,*63
   1800690, $GNGSA,M,3,10,14,31,20,18,11,21,24,08,32,,,1.26,0.74,1.02*14
   1800690, $GNGSA,M,3,73,81,65,72,88,,,,,,,,1.26,0.74,1.02*1E
   1800690, $GPZDA,003000.00,31,08,2019,00,00*65
   1800690, $GNVTG,209.516,T,,M,2.9661,N,5.4932,K,A*19
   1801689, $GPGGA,003001.00,3908.5439737,N,09622.0777293,W,1,14,0.77,331.5004,M,-28.2913,M,,*6D
   1801689, $GNGSA,M,3,10,14,31,20,18,11,21,24,32,,,,1.33,0.77,1.09*10
   1801689, $GNGSA,M,3,73,81,65,72,88,,,,,,,,1.33,0.77,1.09*12
   1801689, $GPZDA,003001.00,31,08,2019,00,00*64
   1801689, $GNVTG,214.231,T,,M,2.3950,N,4.4356,K,A*19
   1802689, $GPGGA,003002.00,3908.5435460,N,09622.0782881,W,1,15,0.74,331.5423,M,-28.2913,M,,*63
   1802689, $GNGSA,M,3,10,14,31,20,18,11,21,24,08,32,,,1.26,0.74,1.02*14
   1802689, $GNGSA,M,3,73,81,65,72,88,,,,,,,,1.26,0.74,1.02*1E
   1802689, $GPZDA,003002.00,31,08,2019,00,00*67
   1802689, $GNVTG,216.837,T,,M,2.2334,N,4.1362,K,A*1C
   1803689, $GPGGA,003003.00,3908.5430866,N,09622.0788772,W,1,14,0.75,331.4272,M,-28.2913,M,,*67
   1803689, $GNGSA,M,3,10,14,31,20,18,11,21,24,08,32,,,1.29,0.75,1.05*1D
   1803689, $GNGSA,M,3,73,81,72,88,,,,,,,,,1.29,0.75,1.05*14
   1803689, $GPZDA,003003.00,31,08,2019,00,00*66
   1803689, $GNVTG,224.668,T,,M,2.6315,N,4.8736,K,A*12
   1804689, $GPGGA,003004.00,3908.5427693,N,09622.0792961,W,1,14,0.77,330.9150,M,-28.2913,M,,*68
   1804689, $GNGSA,M,3,10,14,31,20,18,11,21,24,32,,,,1.33,0.77,1.09*10
   1804689, $GNGSA,M,3,73,81,65,72,88,,,,,,,,1.33,0.77,1.09*12
   1804689, $GPZDA,003004.00,31,08,2019,00,00*61
   1804689, $GNVTG,234.638,T,,M,2.6577,N,4.9221,K,A*16
   1805689, $GPGGA,003005.00,3908.5423516,N,09622.0798543,W,1,14,0.78,330.9294,M,-28.2912,M,,*60
   1805689, $GNGSA,M,3,10,14,31,20,18,11,21,24,08,32,,,1.29,0.78,1.03*16
   1805689, $GNGSA,M,3,73,81,65,72,,,,,,,,,1.29,0.78,1.03*1C
   1805689, $GPZDA,003005.00,31,08,2019,00,00*60
   1805689, $GNVTG,228.668,T,,M,2.5884,N,4.7936,K,A*1F
   1806688, $GPGGA,003006.00,3908.5417579,N,09622.0805457,W,1,16,0.72,331.2295,M,-28.2912,M,,*61
   1806688, $GNGSA,M,3,10,14,31,20,18,11,21,24,08,01,32,,1.22,0.72,0.98*15
   1806688, $GNGSA,M,3,73,81,65,72,88,,,,,,,,1.22,0.72,0.98*1E
   1806688, $GPZDA,003006.00,31,08,2019,00,00*63
   1806688, $GNVTG,224.162,T,,M,2.6321,N,4.8746,K,A*1F
   1807690, $GPGGA,003007.00,3908.5412541,N,09622.0811085,W,1,15,0.76,331.2271,M,-28.2912,M,,*6D
   1807690, $GNGSA,M,3,10,14,31,20,18,11,21,24,08,01,32,,1.27,0.76,1.02*16
   1807690, $GNGSA,M,3,81,65,72,88,,,,,,,,,1.27,0.76,1.02*19
   1807690, $GPZDA,003007.00,31,08,2019,00,00*62
   1807690, $GNVTG,214.496,T,,M,2.4508,N,4.5388,K,A*16
   1808689, $GPGGA,003008.00,3908.5407846,N,09622.0817280,W,1,14,0.76,331.4140,M,-28.2912,M,,*6B
   1808689, $GNGSA,M,3,10,14,31,20,18,11,21,24,08,01,32,,1.29,0.76,1.04*1E
   1808689, $GNGSA,M,3,81,72,88,,,,,,,,,,1.29,0.76,1.04*12
   1808689, $GPZDA,003008.00,31,08,2019,00,00*6D
   1808689, $GNVTG,219.295,T,,M,2.7273,N,5.0510,K,A*15
   1809689, $GPGGA,003009.00,3908.5403101,N,09622.0823196,W,1,14,0.79,331.4731,M,-28.2912,M,,*68
   1809689, $GNGSA,M,3,10,14,31,20,18,11,21,24,01,32,,,1.31,0.79,1.05*11
   1809689, $GNGSA,M,3,81,65,72,88,,,,,,,,,1.31,0.79,1.05*16
   1809689, $GPZDA,003009.00,31,08,2019,00,00*6C
   1809689, $GNVTG,222.696,T,,M,2.5170,N,4.6616,K,A*1A
   1810688, $GPGGA,003010.00,3908.5401957,N,09622.0824854,W,1,14,0.92,330.7110,M,-28.2911,M,,*68
   1810688, $GNGSA,M,3,10,14,31,20,18,11,21,08,01,32,,,1.42,0.92,1.08*13
   1810688, $GNGSA,M,3,81,65,72,88,,,,,,,,,1.42,0.92,1.08*1A
   1810688, $GPZDA,003010.00,31,08,2019,00,00*64
   1810688, $GNVTG,227.918,T,,M,2.5303,N,4.6862,K,A*1D
   1811689, $GPGGA,003011.00,3908.5398070,N,09622.0830295,W,1,13,1.01,330.7225,M,-28.2911,M,,*69
   1811689, $GNGSA,M,3,10,14,31,20,18,11,21,08,01,32,,,1.50,1.01,1.11*13
   1811689, $GNGSA,M,3,81,65,72,,,,,,,,,,1.50,1.01,1.11*1A
   1811689, $GPZDA,003011.00,31,08,2019,00,00*65
   1811689, $GNVTG,234.877,T,,M,2.5454,N,4.7141,K,A*1B
   1812689, $GPGGA,003012.00,3908.5389410,N,09622.0845038,W,1,13,0.81,331.6402,M,-28.2911,M,,*65
   1812689, $GNGSA,M,3,10,14,31,20,18,11,21,24,08,01,32,,1.33,0.81,1.06*1F
   1812689, $GNGSA,M,3,81,72,,,,,,,,,,,1.33,0.81,1.06*13
   1812689, $GPZDA,003012.00,31,08,2019,00,00*66
   1812689, $GNVTG,236.744,T,,M,2.4975,N,4.6254,K,A*1F
   1813688, $GPGGA,003013.00,3908.5383862,N,09622.0851537,W,1,15,0.74,331.8684,M,-28.2911,M,,*66
   1813688, $GNGSA,M,3,10,14,31,20,18,11,21,24,01,32,,,1.26,0.74,1.02*1D
   1813688, $GNGSA,M,3,73,81,65,72,88,,,,,,,,1.26,0.74,1.02*1E
   1813688, $GPZDA,003013.00,31,08,2019,00,00*67
   1813688, $GNVTG,236.078,T,,M,2.5406,N,4.7051,K,A*19
   1814689, $GPGGA,003014.00,3908.5378665,N,09622.0859010,W,1,16,0.72,331.7941,M,-28.2911,M,,*68
   1814689, $GNGSA,M,3,10,14,31,20,18,11,21,24,08,01,32,,1.22,0.72,0.98*15
   1814689, $GNGSA,M,3,73,81,65,72,88,,,,,,,,1.22,0.72,0.98*1E
   1814689, $GPZDA,003014.00,31,08,2019,00,00*60
   1814689, $GNVTG,229.663,T,,M,2.5372,N,4.6990,K,A*1A
   1815689, $GPGGA,003015.00,3908.5373185,N,09622.0866289,W,1,16,0.72,331.9611,M,-28.2911,M,,*61
   1815689, $GNGSA,M,3,10,14,31,20,18,11,21,24,08,01,32,,1.22,0.72,0.98*15
   1815689, $GNGSA,M,3,73,81,65,72,88,,,,,,,,1.22,0.72,0.98*1E
   1815689, $GPZDA,003015.00,31,08,2019,00,00*61
   1815689, $GNVTG,221.056,T,,M,2.6113,N,4.8362,K,A*1D
   1816689, $GPGGA,003016.00,3908.5369260,N,09622.0872226,W,1,14,0.79,331.6915,M,-28.2910,M,,*6D
   1816689, $GNGSA,M,3,10,14,31,20,18,11,21,24,08,01,32,,1.30,0.79,1.04*19
   1816689, $GNGSA,M,3,73,81,72,,,,,,,,,,1.30,0.79,1.04*11
   1816689, $GPZDA,003016.00,31,08,2019,00,00*62
   1816689, $GNVTG,223.941,T,,M,2.6519,N,4.9112,K,A*1A
   1817688, $GPGGA,003017.00,3908.5364883,N,09622.0880095,W,1,16,0.72,331.7658,M,-28.2910,M,,*6F
   1817688, $GNGSA,M,3,10,14,31,20,18,11,21,24,08,01,32,,1.22,0.72,0.98*15
   1817688, $GNGSA,M,3,73,81,65,72,88,,,,,,,,1.22,0.72,0.98*1E
   1817688, $GPZDA,003017.00,31,08,2019,00,00*63
   1817688, $GNVTG,225.641,T,,M,2.6969,N,4.9946,K,A*11
   1818689, $GPGGA,003018.00,3908.5360882,N,09622.0886600,W,1,16,0.70,331.6106,M,-28.2910,M,,*66
   1818689, $GNGSA,M,3,10,14,31,20,18,11,21,24,01,32,,,1.19,0.70,0.96*19
   1818689, $GNGSA,M,3,73,81,65,71,72,88,,,,,,,1.19,0.70,0.96*1C
   1818689, $GPZDA,003018.00,31,08,2019,00,00*6C
   1818689, $GNVTG,226.106,T,,M,2.5393,N,4.7028,K,A*15
   1819689, $GPGGA,003019.00,3908.5357015,N,09622.0893943,W,1,17,0.68,331.5461,M,-28.2910,M,,*66
   1819689, $GNGSA,M,3,10,14,31,20,18,11,21,24,08,01,32,,1.14,0.68,0.92*11
   1819689, $GNGSA,M,3,73,81,65,71,72,88,,,,,,,1.14,0.68,0.92*1C
   1819689, $GPZDA,003019.00,31,08,2019,00,00*6D
   1819689, $GNVTG,236.714,T,,M,2.0820,N,3.8559,K,A*1C
   1820690, $GPGGA,003020.00,3908.5352423,N,09622.0902102,W,1,18,0.66,331.4110,M,-28.2910,M,,*6F
   1820690, $GNGSA,M,3,10,25,14,31,20,18,11,21,24,08,01,32,1.09,0.66,0.87*10
   1820690, $GNGSA,M,3,73,81,65,71,72,88,,,,,,,1.09,0.66,0.87*1A
   1820690, $GPZDA,003020.00,31,08,2019,00,00*67
   1820690, $GNVTG,243.773,T,,M,2.4279,N,4.4965,K,A*15
   1821689, $GPGGA,003021.00,3908.5349284,N,09622.0910204,W,1,17,0.70,331.2342,M,-28.2910,M,,*62
   1821689, $GNGSA,M,3,10,25,14,31,20,18,11,21,24,08,01,32,1.11,0.70,0.87*1E
   1821689, $GNGSA,M,3,73,81,65,71,72,,,,,,,,1.11,0.70,0.87*14
   1821689, $GPZDA,003021.00,31,08,2019,00,00*66
   1821689, $GNVTG,248.455,T,,M,2.3963,N,4.4379,K,A*19
   1822689, $GPGGA,003022.00,3908.5343986,N,09622.0918273,W,1,19,0.60,331.0378,M,-28.2910,M,,*6E
   1822689, $GNGSA,M,3,10,25,14,31,12,20,18,11,21,24,08,01,1.03,0.60,0.84*1D
   1822689, $GNGSA,M,3,73,81,65,71,72,75,,,,,,,1.03,0.60,0.84*17
   1822689, $GPZDA,003022.00,31,08,2019,00,00*65
   1822689, $GNVTG,246.615,T,,M,2.5975,N,4.8106,K,A*16
   1823689, $GPGGA,003023.00,3908.5340398,N,09622.0926114,W,1,19,0.63,331.0511,M,-28.2910,M,,*6C
   1823689, $GNGSA,M,3,10,25,14,31,12,20,18,11,21,24,08,01,1.05,0.63,0.85*19
   1823689, $GNGSA,M,3,73,81,65,71,72,88,,,,,,,1.05,0.63,0.85*11
   1823689, $GPZDA,003023.00,31,08,2019,00,00*64
   1823689, $GNVTG,237.504,T,,M,2.3333,N,4.3212,K,A*10
   1824689, $GPGGA,003024.00,3908.5336222,N,09622.0933504,W,1,18,0.61,330.9367,M,-28.2910,M,,*67
   1824689, $GNGSA,M,3,10,14,31,12,20,18,11,21,24,08,01,32,1.06,0.61,0.87*1C
   1824689, $GNGSA,M,3,73,81,65,71,72,75,,,,,,,1.06,0.61,0.87*10
   1824689, $GPZDA,003024.00,31,08,2019,00,00*63
   1824689, $GNVTG,233.702,T,,M,2.6618,N,4.9297,K,A*1E
   1825689, $GPGGA,003025.00,3908.5331991,N,09622.0941978,W,1,19,0.60,330.2465,M,-28.2910,M,,*6E
   1825689, $GNGSA,M,3,10,25,14,31,12,20,18,11,21,24,08,01,1.03,0.60,0.84*1D
   1825689, $GNGSA,M,3,73,81,65,71,72,75,,,,,,,1.03,0.60,0.84*17
   1825689, $GPZDA,003025.00,31,08,2019,00,00*62
   1825689, $GNVTG,236.144,T,,M,2.8369,N,5.2540,K,A*15
   1826689, $GPGGA,003026.00,3908.5330256,N,09622.0949978,W,1,18,0.61,329.6587,M,-28.2909,M,,*6D
   1826689, $GNGSA,M,3,10,25,14,31,12,20,18,11,21,24,08,01,1.04,0.61,0.84*1B
   1826689, $GNGSA,M,3,81,65,71,72,75,,,,,,,,1.04,0.61,0.84*15
   1826689, $GPZDA,003026.00,31,08,2019,00,00*61
   1826689, $GNVTG,230.352,T,,M,2.6807,N,4.9646,K,A*14
   1827690, $GPGGA,003027.00,3908.5327405,N,09622.0959258,W,1,19,0.60,329.9724,M,-28.2909,M,,*66
   1827690, $GNGSA,M,3,10,25,14,31,12,20,18,11,21,24,08,01,1.03,0.60,0.84*1D
   1827690, $GNGSA,M,3,73,81,65,71,72,75,,,,,,,1.03,0.60,0.84*17
   1827690, $GPZDA,003027.00,31,08,2019,00,00*60
   1827690, $GNVTG,240.164,T,,M,2.7006,N,5.0015,K,A*14
   1828689, $GPGGA,003028.00,3908.5324730,N,09622.0970551,W,1,19,0.60,330.5644,M,-28.2909,M,,*69
   1828689, $GNGSA,M,3,10,25,14,31,12,20,18,11,21,24,08,01,1.03,0.60,0.84*1D
   1828689, $GNGSA,M,3,73,81,65,71,72,75,,,,,,,1.03,0.60,0.84*17
   1828689, $GPZDA,003028.00,31,08,2019,00,00*6F
   1828689, $GNVTG,243.316,T,,M,2.4090,N,4.4614,K,A*1E
   1829689, $GPGGA,003029.00,3908.5322086,N,09622.0980536,W,1,19,0.60,330.4673,M,-28.2909,M,,*6F
   1829689, $GNGSA,M,3,10,25,14,31,12,20,18,11,21,24,08,01,1.03,0.60,0.84*1D
   1829689, $GNGSA,M,3,73,81,65,71,72,75,,,,,,,1.03,0.60,0.84*17
   1829689, $GPZDA,003029.00,31,08,2019,00,00*6E
   1829689, $GNVTG,256.908,T,,M,2.6734,N,4.9512,K,A*1C
   1830689, $GPGGA,003030.00,3908.5319162,N,09622.0989183,W,1,19,0.60,330.3245,M,-28.2909,M,,*61
   1830689, $GNGSA,M,3,10,25,14,31,12,20,18,11,21,24,08,01,1.03,0.60,0.84*1D
   1830689, $GNGSA,M,3,73,81,65,71,72,75,,,,,,,1.03,0.60,0.84*17
   1830689, $GPZDA,003030.00,31,08,2019,00,00*66
   1830689, $GNVTG,261.699,T,,M,2.3453,N,4.3435,K,A*16
   1831689, $GPGGA,003031.00,3908.5315842,N,09622.0999979,W,1,19,0.60,330.0746,M,-28.2908,M,,*6F
   1831689, $GNGSA,M,3,10,25,14,31,12,20,18,11,21,24,08,01,1.03,0.60,0.84*1D
   1831689, $GNGSA,M,3,73,81,65,71,72,75,,,,,,,1.03,0.60,0.84*17
   1831689, $GPZDA,003031.00,31,08,2019,00,00*67
   1831689, $GNVTG,257.078,T,,M,2.7454,N,5.0845,K,A*10
   1832689, $GPGGA,003032.00,3908.5313954,N,09622.1010526,W,1,17,0.64,329.9554,M,-28.2908,M,,*69
   1832689, $GNGSA,M,3,10,25,14,31,12,18,11,21,24,01,32,,1.12,0.64,0.92*15
   1832689, $GNGSA,M,3,73,81,65,71,72,75,,,,,,,1.12,0.64,0.92*14
   1832689, $GPZDA,003032.00,31,08,2019,00,00*64
   1832689, $GNVTG,252.670,T,,M,2.7418,N,5.0778,K,A*12
   1833689, $GPGGA,003033.00,3908.5311996,N,09622.1019913,W,1,17,0.64,329.9639,M,-28.2908,M,,*6F
   1833689, $GNGSA,M,3,10,25,14,31,12,18,11,21,24,01,32,,1.12,0.64,0.92*15
   1833689, $GNGSA,M,3,73,81,65,71,72,75,,,,,,,1.12,0.64,0.92*14
   1833689, $GPZDA,003033.00,31,08,2019,00,00*65
   1833689, $GNVTG,252.507,T,,M,2.6236,N,4.8589,K,A*1F
   1834690, $GPGGA,003034.00,3908.5310519,N,09622.1028189,W,1,17,0.64,329.8700,M,-28.2908,M,,*61
   1834690, $GNGSA,M,3,10,25,14,31,12,18,11,21,24,01,32,,1.12,0.64,0.92*15
   1834690, $GNGSA,M,3,73,81,65,71,72,75,,,,,,,1.12,0.64,0.92*14
   1834690, $GPZDA,003034.00,31,08,2019,00,00*62
   1834690, $GNVTG,248.715,T,,M,2.7782,N,5.1453,K,A*10
   1835689, $GPGGA,003035.00,3908.5308154,N,09622.1035467,W,1,19,0.55,329.2527,M,-28.2908,M,,*6C
   1835689, $GNGSA,M,3,10,25,14,31,27,12,18,11,21,24,01,32,1.02,0.55,0.86*16
   1835689, $GNGSA,M,3,73,81,65,71,72,75,87,,,,,,1.02,0.55,0.86*1D
   1835689, $GPZDA,003035.00,31,08,2019,00,00*63
   1835689, $GNVTG,252.388,T,,M,2.7987,N,5.1832,K,A*1B
   1836689, $GPGGA,003036.00,3908.5307284,N,09622.1044989,W,1,19,0.55,329.2986,M,-28.2907,M,,*6D
   1836689, $GNGSA,M,3,10,25,14,31,27,12,18,11,21,24,01,32,1.02,0.55,0.86*16
   1836689, $GNGSA,M,3,73,81,65,71,72,75,87,,,,,,1.02,0.55,0.86*1D
   1836689, $GPZDA,003036.00,31,08,2019,00,00*60
   1836689, $GNVTG,267.174,T,,M,2.6739,N,4.9520,K,A*11
   1837689, $GPGGA,003037.00,3908.5306446,N,09622.1054454,W,1,19,0.55,329.4066,M,-28.2907,M,,*68
   1837689, $GNGSA,M,3,10,25,14,31,27,12,18,11,21,24,01,32,1.02,0.55,0.86*16
   1837689, $GNGSA,M,3,73,81,65,71,72,75,87,,,,,,1.02,0.55,0.86*1D
   1837689, $GPZDA,003037.00,31,08,2019,00,00*61
   1837689, $GNVTG,273.785,T,,M,2.4444,N,4.5271,K,A*18
   1838689, $GPGGA,003038.00,3908.5306219,N,09622.1062769,W,1,19,0.55,329.2850,M,-28.2907,M,,*68
   1838689, $GNGSA,M,3,10,25,14,31,27,12,18,11,21,24,01,32,1.02,0.55,0.86*16
   1838689, $GNGSA,M,3,73,81,65,71,72,75,87,,,,,,1.02,0.55,0.86*1D
   1838689, $GPZDA,003038.00,31,08,2019,00,00*6E
   1838689, $GNVTG,273.314,T,,M,2.5286,N,4.6831,K,A*10
   1839689, $GPGGA,003039.00,3908.5305581,N,09622.1074437,W,1,19,0.55,329.5551,M,-28.2907,M,,*68
   1839689, $GNGSA,M,3,10,25,14,31,27,12,20,18,11,21,24,01,1.01,0.55,0.85*15
   1839689, $GNGSA,M,3,73,81,65,72,75,87,,,,,,,1.01,0.55,0.85*1B
   1839689, $GPZDA,003039.00,31,08,2019,00,00*6F
   1839689, $GNVTG,269.188,T,,M,2.8861,N,5.3451,K,A*1C
   1840688, $GPGGA,003040.00,3908.5305560,N,09622.1083850,W,1,20,0.54,329.5314,M,-28.2907,M,,*60
   1840688, $GNGSA,M,3,10,25,14,31,27,12,20,18,11,21,24,01,0.99,0.54,0.83*12
   1840688, $GNGSA,M,3,73,81,65,71,72,75,87,,,,,,0.99,0.54,0.83*1A
   1840688, $GPZDA,003040.00,31,08,2019,00,00*61
   1840688, $GNVTG,268.025,T,,M,2.6509,N,4.9094,K,A*10
   1841691, $GPGGA,003041.00,3908.5305659,N,09622.1093300,W,1,20,0.54,329.2949,M,-28.2906,M,,*63
   1841691, $GNGSA,M,3,10,25,14,31,27,12,20,18,11,21,24,01,0.99,0.54,0.83*12
   1841691, $GNGSA,M,3,73,81,65,71,72,75,87,,,,,,0.99,0.54,0.83*1A
   1841691, $GPZDA,003041.00,31,08,2019,00,00*60
   1841691, $GNVTG,264.468,T,,M,2.6968,N,4.9944,K,A*1E
   1842689, $GPGGA,003042.00,3908.5305151,N,09622.1101588,W,1,20,0.54,329.1586,M,-28.2906,M,,*6F
   1842689, $GNGSA,M,3,10,25,14,31,27,12,20,18,11,21,24,01,0.99,0.54,0.83*12
   1842689, $GNGSA,M,3,73,81,65,71,72,75,87,,,,,,0.99,0.54,0.83*1A
   1842689, $GPZDA,003042.00,31,08,2019,00,00*63
   1842689, $GNVTG,247.933,T,,M,3.0111,N,5.5765,K,A*1D
   1843690, $GPGGA,003043.00,3908.5303766,N,09622.1110211,W,1,20,0.54,329.2027,M,-28.2906,M,,*60
   1843690, $GNGSA,M,3,10,25,14,31,27,12,20,18,11,21,24,01,0.99,0.54,0.83*12
   1843690, $GNGSA,M,3,73,81,65,71,72,75,87,,,,,,0.99,0.54,0.83*1A
   1843690, $GPZDA,003043.00,31,08,2019,00,00*62
   1843690, $GNVTG,256.114,T,,M,2.7079,N,5.0150,K,A*1C
   1844689, $GPGGA,003044.00,3908.5303383,N,09622.1120741,W,1,20,0.54,329.3523,M,-28.2906,M,,*6B
   1844689, $GNGSA,M,3,10,25,14,31,27,12,20,18,11,21,24,01,0.99,0.54,0.83*12
   1844689, $GNGSA,M,3,73,81,65,71,72,75,87,,,,,,0.99,0.54,0.83*1A
   1844689, $GPZDA,003044.00,31,08,2019,00,00*65
   1844689, $GNVTG,268.789,T,,M,2.5550,N,4.7319,K,A*16
   1845689, $GPGGA,003045.00,3908.5302549,N,09622.1128815,W,1,20,0.54,329.3848,M,-28.2906,M,,*6D
   1845689, $GNGSA,M,3,10,25,14,31,27,12,20,18,11,21,24,01,0.99,0.54,0.83*12
   1845689, $GNGSA,M,3,73,81,65,71,72,75,87,,,,,,0.99,0.54,0.83*1A
   1845689, $GPZDA,003045.00,31,08,2019,00,00*64
   1845689, $GNVTG,278.292,T,,M,2.1832,N,4.0434,K,A*1A
   1846689, $GPGGA,003046.00,3908.5301516,N,09622.1138383,W,1,18,0.56,329.2520,M,-28.2905,M,,*6A
   1846689, $GNGSA,M,3,10,25,14,31,27,12,18,11,21,24,01,32,1.04,0.56,0.88*1D
   1846689, $GNGSA,M,3,73,81,65,72,75,87,,,,,,,1.04,0.56,0.88*10
   1846689, $GPZDA,003046.00,31,08,2019,00,00*67
   1846689, $GNVTG,267.250,T,,M,2.2376,N,4.1441,K,A*11
   1847689, $GPGGA,003047.00,3908.5301190,N,09622.1145619,W,1,17,0.57,329.1729,M,-28.2905,M,,*6B
   1847689, $GNGSA,M,3,10,25,14,31,27,12,18,11,21,24,01,32,1.06,0.57,0.90*17
   1847689, $GNGSA,M,3,73,81,72,75,87,,,,,,,,1.06,0.57,0.90*19
   1847689, $GPZDA,003047.00,31,08,2019,00,00*66
   1847689, $GNVTG,286.210,T,,M,1.9615,N,3.6327,K,A*15
   1848689, $GPGGA,003048.00,3908.5299826,N,09622.1150044,W,1,16,0.59,329.4998,M,-28.2905,M,,*64
   1848689, $GNGSA,M,3,10,25,14,31,27,12,18,11,21,24,01,32,1.11,0.59,0.93*1C
   1848689, $GNGSA,M,3,73,72,75,87,,,,,,,,,1.11,0.59,0.93*1B
   1848689, $GPZDA,003048.00,31,08,2019,00,00*69
   1848689, $GNVTG,270.306,T,,M,1.1137,N,2.0625,K,A*15
   1849689, $GPGGA,003049.00,3908.5296376,N,09622.1146347,W,1,16,0.59,330.3202,M,-28.2905,M,,*64
   1849689, $GNGSA,M,3,10,25,14,31,27,12,18,11,21,24,01,32,1.11,0.59,0.93*1C
   1849689, $GNGSA,M,3,73,72,75,87,,,,,,,,,1.11,0.59,0.93*1B
   1849689, $GPZDA,003049.00,31,08,2019,00,00*68
   1849689, $GNVTG,315.293,T,,M,0.2060,N,0.3815,K,A*17
   1850688, $GPGGA,003050.00,3908.5298417,N,09622.1148389,W,1,18,0.57,329.9279,M,-28.2905,M,,*60
   1850688, $GNGSA,M,3,10,25,14,31,27,12,20,18,11,21,24,01,1.05,0.57,0.89*1F
   1850688, $GNGSA,M,3,73,65,72,75,87,,,,,,,,1.05,0.57,0.89*18
   1850688, $GPZDA,003050.00,31,08,2019,00,00*60
   1850688, $GNVTG,012.027,T,,M,0.3915,N,0.7251,K,A*1A
   1851689, $GPGGA,003051.00,3908.5296329,N,09622.1146606,W,1,16,0.66,329.6061,M,-28.2905,M,,*61
   1851689, $GNGSA,M,3,10,14,27,12,20,18,11,24,01,32,,,1.11,0.66,0.90*17
   1851689, $GNGSA,M,3,73,65,71,72,75,87,,,,,,,1.11,0.66,0.90*11
   1851689, $GPZDA,003051.00,31,08,2019,00,00*61
   1851689, $GNVTG,051.446,T,,M,2.2114,N,4.0955,K,A*18
   1852689, $GPGGA,003052.00,3908.5297320,N,09622.1147398,W,1,19,0.55,331.5134,M,-28.2905,M,,*6D
   1852689, $GNGSA,M,3,10,25,14,31,08,27,12,20,18,11,21,24,1.02,0.55,0.86*1C
   1852689, $GNGSA,M,3,73,65,72,75,87,,,,,,,,1.02,0.55,0.86*12
   1852689, $GPZDA,003052.00,31,08,2019,00,00*62
   1852689, $GNVTG,082.654,T,,M,2.5992,N,4.8136,K,A*13
   1853689, $GPGGA,003053.00,3908.5293507,N,09622.1134971,W,1,16,0.62,329.5711,M,-28.2905,M,,*61
   1853689, $GNGSA,M,3,10,14,31,27,12,20,18,11,24,01,32,,1.12,0.62,0.93*11
   1853689, $GNGSA,M,3,73,65,72,75,87,,,,,,,,1.12,0.62,0.93*13
   1853689, $GPZDA,003053.00,31,08,2019,00,00*63
   1853689, $GNVTG,084.550,T,,M,2.5605,N,4.7421,K,A*1F
   1854689, $GPGGA,003054.00,3908.5295495,N,09622.1125832,W,1,17,0.59,329.5418,M,-28.2905,M,,*6F
   1854689, $GNGSA,M,3,10,25,14,31,27,12,20,18,11,24,01,32,1.07,0.59,0.89*11
   1854689, $GNGSA,M,3,73,65,72,75,87,,,,,,,,1.07,0.59,0.89*14
   1854689, $GPZDA,003054.00,31,08,2019,00,00*64
   1854689, $GNVTG,091.753,T,,M,2.5344,N,4.6936,K,A*10
   1855689, $GPGGA,003055.00,3908.5297296,N,09622.1116356,W,1,17,0.59,329.3460,M,-28.2905,M,,*69
   1855689, $GNGSA,M,3,10,25,14,31,27,12,20,18,11,24,01,32,1.07,0.59,0.89*11
   1855689, $GNGSA,M,3,73,65,72,75,87,,,,,,,,1.07,0.59,0.89*14
   1855689, $GPZDA,003055.00,31,08,2019,00,00*65
   1855689, $GNVTG,091.072,T,,M,2.7306,N,5.0570,K,A*19
   1856689, $GPGGA,003056.00,3908.5298488,N,09622.1106310,W,1,19,0.56,329.3533,M,-28.2906,M,,*6A
   1856689, $GNGSA,M,3,10,25,14,31,27,12,20,18,11,24,01,32,1.01,0.56,0.84*15
   1856689, $GNGSA,M,3,73,81,65,71,72,75,87,,,,,,1.01,0.56,0.84*1F
   1856689, $GPZDA,003056.00,31,08,2019,00,00*66
   1856689, $GNVTG,089.604,T,,M,3.0962,N,5.7342,K,A*19
   1857689, $GPGGA,003057.00,3908.5300344,N,09622.1096555,W,1,19,0.56,329.4895,M,-28.2906,M,,*65
   1857689, $GNGSA,M,3,10,25,14,31,27,12,20,18,11,24,01,32,1.01,0.56,0.84*15
   1857689, $GNGSA,M,3,73,81,65,71,72,75,87,,,,,,1.01,0.56,0.84*1F
   1857689, $GPZDA,003057.00,31,08,2019,00,00*67
   1857689, $GNVTG,084.793,T,,M,2.8060,N,5.1966,K,A*13
   1858690, $GPGGA,003058.00,3908.5306725,N,09622.1088475,W,1,20,0.54,330.6398,M,-28.2906,M,,*67
   1858690, $GNGSA,M,3,10,25,14,31,27,12,20,18,11,21,24,01,0.99,0.54,0.83*12
   1858690, $GNGSA,M,3,73,81,65,71,72,75,87,,,,,,0.99,0.54,0.83*1A
   1858690, $GPZDA,003058.00,31,08,2019,00,00*68
   1858690, $GNVTG,080.861,T,,M,2.7568,N,5.1056,K,A*1D
   1859690, $GPGGA,003059.00,3908.5306055,N,09622.1078697,W,1,20,0.54,329.9974,M,-28.2906,M,,*68
   1859690, $GNGSA,M,3,10,25,14,31,27,12,20,18,11,21,24,01,0.99,0.54,0.83*12
   1859690, $GNGSA,M,3,73,81,65,71,72,75,87,,,,,,0.99,0.54,0.83*1A
   1859690, $GPZDA,003059.00,31,08,2019,00,00*69
   1859690, $GNVTG,080.002,T,,M,2.5987,N,4.8128,K,A*1F
   1860690, $GPGGA,003100.00,3908.5305766,N,09622.1068537,W,1,19,0.56,329.3289,M,-28.2906,M,,*62
   1860690, $GNGSA,M,3,10,25,14,31,27,12,20,18,11,24,01,32,1.01,0.56,0.84*15
   1860690, $GNGSA,M,3,73,81,65,71,72,75,87,,,,,,1.01,0.56,0.84*1F
   1860690, $GPZDA,003100.00,31,08,2019,00,00*64
   1860690, $GNVTG,074.736,T,,M,2.5133,N,4.6546,K,A*11
   1861690, $GPGGA,003101.00,3908.5312342,N,09622.1062162,W,1,19,0.57,331.4805,M,-28.2907,M,,*69
   1861690, $GNGSA,M,3,10,25,14,31,08,27,20,18,11,21,24,01,1.01,0.57,0.84*1D
   1861690, $GNGSA,M,3,81,65,71,72,75,87,,,,,,,1.01,0.57,0.84*1A
   1861690, $GPZDA,003101.00,31,08,2019,00,00*65
   1861690, $GNVTG,074.023,T,,M,2.8623,N,5.3009,K,A*13
   1862689, $GPGGA,003102.00,3908.5313380,N,09622.1051426,W,1,21,0.53,331.7086,M,-28.2907,M,,*6F
   1862689, $GNGSA,M,3,10,25,14,31,08,27,12,20,18,11,21,24,0.98,0.53,0.83*1D
   1862689, $GNGSA,M,3,73,81,65,72,75,88,87,,,,,,0.98,0.53,0.83*1A
   1862689, $GPZDA,003102.00,31,08,2019,00,00*66
   1862689, $GNVTG,072.677,T,,M,2.5500,N,4.7227,K,A*16
   1863689, $GPGGA,003103.00,3908.5314700,N,09622.1041420,W,1,21,0.53,331.8959,M,-28.2907,M,,*66
   1863689, $GNGSA,M,3,10,25,14,31,08,27,12,20,18,11,21,24,0.98,0.53,0.83*1D
   1863689, $GNGSA,M,3,73,81,65,72,75,88,87,,,,,,0.98,0.53,0.83*1A
   1863689, $GPZDA,003103.00,31,08,2019,00,00*67
   1863689, $GNVTG,086.313,T,,M,2.3571,N,4.3654,K,A*1E
   1864689, $GPGGA,003104.00,3908.5316962,N,09622.1034921,W,1,21,0.53,332.6590,M,-28.2907,M,,*63
   1864689, $GNGSA,M,3,10,25,14,31,08,27,12,20,18,11,21,24,0.98,0.53,0.83*1D
   1864689, $GNGSA,M,3,73,81,65,72,75,88,87,,,,,,0.98,0.53,0.83*1A
   1864689, $GPZDA,003104.00,31,08,2019,00,00*60
   1864689, $GNVTG,090.294,T,,M,2.5531,N,4.7283,K,A*1F
   1865690, $GPGGA,003105.00,3908.5318899,N,09622.1024836,W,1,22,0.51,332.3769,M,-28.2907,M,,*6F
   1865690, $GNGSA,M,3,10,25,14,31,08,27,12,20,18,11,21,24,0.96,0.51,0.81*13
   1865690, $GNGSA,M,3,73,81,65,71,72,75,88,87,,,,,0.96,0.51,0.81*12
   1865690, $GPZDA,003105.00,31,08,2019,00,00*61
   1865690, $GNVTG,086.311,T,,M,2.9744,N,5.5085,K,A*1F
   1866689, $GPGGA,003106.00,3908.5318748,N,09622.1015320,W,1,21,0.53,331.8237,M,-28.2907,M,,*66
   1866689, $GNGSA,M,3,10,25,14,31,08,27,12,20,18,11,21,24,0.98,0.53,0.83*1D
   1866689, $GNGSA,M,3,73,81,65,72,75,88,87,,,,,,0.98,0.53,0.83*1A
   1866689, $GPZDA,003106.00,31,08,2019,00,00*62
   1866689, $GNVTG,081.614,T,,M,2.9734,N,5.5067,K,A*13
   1867689, $GPGGA,003107.00,3908.5322498,N,09622.1007183,W,1,20,0.55,332.2244,M,-28.2907,M,,*62
   1867689, $GNGSA,M,3,10,14,31,08,27,12,20,18,11,21,24,01,1.02,0.55,0.86*1A
   1867689, $GNGSA,M,3,73,81,65,72,75,88,87,,,,,,1.02,0.55,0.86*1B
   1867689, $GPZDA,003107.00,31,08,2019,00,00*63
   1867689, $GNVTG,076.291,T,,M,2.8658,N,5.3075,K,A*1D
   1868690, $GPGGA,003108.00,3908.5321081,N,09622.0996356,W,1,19,0.57,331.2649,M,-28.2907,M,,*6A
   1868690, $GNGSA,M,3,10,25,14,31,08,27,12,20,18,11,24,01,1.03,0.57,0.87*1C
   1868690, $GNGSA,M,3,73,65,72,75,88,87,,,,,,,1.03,0.57,0.87*10
   1868690, $GPZDA,003108.00,31,08,2019,00,00*6C
   1868690, $GNVTG,063.083,T,,M,2.6358,N,4.8815,K,A*17
   1869689, $GPGGA,003109.00,3908.5324187,N,09622.0986820,W,1,19,0.57,331.1679,M,-28.2907,M,,*62
   1869689, $GNGSA,M,3,10,25,14,31,08,27,12,20,18,11,24,01,1.03,0.57,0.87*1C
   1869689, $GNGSA,M,3,73,65,72,75,88,87,,,,,,,1.03,0.57,0.87*10
   1869689, $GPZDA,003109.00,31,08,2019,00,00*6D
   1869689, $GNVTG,060.390,T,,M,2.7184,N,5.0345,K,A*10
   1870690, $GPGGA,003110.00,3908.5331672,N,09622.0979884,W,1,21,0.53,332.1182,M,-28.2907,M,,*62
   1870690, $GNGSA,M,3,10,25,14,31,08,27,12,20,18,11,21,24,0.98,0.53,0.83*1D
   1870690, $GNGSA,M,3,73,81,65,72,75,88,87,,,,,,0.98,0.53,0.83*1A
   1870690, $GPZDA,003110.00,31,08,2019,00,00*65
   1870690, $GNVTG,055.723,T,,M,2.9400,N,5.4449,K,A*12
   1871689, $GPGGA,003111.00,3908.5336069,N,09622.0970090,W,1,19,0.57,332.1978,M,-28.2908,M,,*61
   1871689, $GNGSA,M,3,10,25,14,31,08,27,20,18,11,21,24,01,1.06,0.57,0.89*17
   1871689, $GNGSA,M,3,73,65,72,75,88,87,,,,,,,1.06,0.57,0.89*1B
   1871689, $GPZDA,003111.00,31,08,2019,00,00*64
   1871689, $GNVTG,056.883,T,,M,3.2080,N,5.9413,K,A*10
   1872689, $GPGGA,003112.00,3908.5340214,N,09622.0961646,W,1,18,0.61,332.2401,M,-28.2908,M,,*62
   1872689, $GNGSA,M,3,10,14,31,08,27,20,18,11,21,24,01,32,1.12,0.61,0.95*1C
   1872689, $GNGSA,M,3,73,65,72,75,88,87,,,,,,,1.12,0.61,0.95*16
   1872689, $GPZDA,003112.00,31,08,2019,00,00*67
   1872689, $GNVTG,057.256,T,,M,2.9009,N,5.3726,K,A*17
   1873689, $GPGGA,003113.00,3908.5344810,N,09622.0952851,W,1,19,0.59,332.3377,M,-28.2908,M,,*6C
   1873689, $GNGSA,M,3,10,14,31,08,27,20,18,11,21,24,01,32,1.09,0.59,0.91*19
   1873689, $GNGSA,M,3,73,81,65,72,75,88,87,,,,,,1.09,0.59,0.91*1A
   1873689, $GPZDA,003113.00,31,08,2019,00,00*66
   1873689, $GNVTG,060.004,T,,M,2.5482,N,4.7193,K,A*10
   1874688, $GPGGA,003114.00,3908.5349637,N,09622.0944170,W,1,19,0.59,332.5081,M,-28.2908,M,,*6C
   1874688, $GNGSA,M,3,10,14,31,08,27,20,18,11,21,24,01,32,1.09,0.59,0.91*19
   1874688, $GNGSA,M,3,73,81,65,72,75,88,87,,,,,,1.09,0.59,0.91*1A
   1874688, $GPZDA,003114.00,31,08,2019,00,00*61
   1874688, $GNVTG,060.588,T,,M,2.6208,N,4.8536,K,A*12
   1875691, $GPGGA,003115.00,3908.5354835,N,09622.0935443,W,1,20,0.55,332.3760,M,-28.2908,M,,*66
   1875691, $GNGSA,M,3,10,14,31,08,27,12,20,18,11,21,24,01,1.02,0.55,0.86*1A
   1875691, $GNGSA,M,3,73,81,65,72,75,88,87,,,,,,1.02,0.55,0.86*1B
   1875691, $GPZDA,003115.00,31,08,2019,00,00*60
   1875691, $GNVTG,065.011,T,,M,2.7879,N,5.1633,K,A*11
   1876689, $GPGGA,003116.00,3908.5359718,N,09622.0927374,W,1,20,0.55,332.3085,M,-28.2909,M,,*65
   1876689, $GNGSA,M,3,10,14,31,08,27,12,20,18,11,21,24,01,1.02,0.55,0.86*1A
   1876689, $GNGSA,M,3,73,81,65,72,75,88,87,,,,,,1.02,0.55,0.86*1B
   1876689, $GPZDA,003116.00,31,08,2019,00,00*63
   1876689, $GNVTG,062.125,T,,M,2.9473,N,5.4583,K,A*15
   1877690, $GPGGA,003117.00,3908.5364814,N,09622.0919670,W,1,20,0.55,332.4576,M,-28.2909,M,,*6B
   1877690, $GNGSA,M,3,10,14,31,08,27,12,20,18,11,21,24,01,1.02,0.55,0.86*1A
   1877690, $GNGSA,M,3,73,81,65,72,75,88,87,,,,,,1.02,0.55,0.86*1B
   1877690, $GPZDA,003117.00,31,08,2019,00,00*62
   1877690, $GNVTG,053.340,T,,M,2.7848,N,5.1575,K,A*10
   1878689, $GPGGA,003118.00,3908.5367791,N,09622.0906685,W,1,19,0.56,332.1075,M,-28.2909,M,,*6B
   1878689, $GNGSA,M,3,10,25,14,31,08,27,12,20,11,21,24,32,1.02,0.56,0.85*14
   1878689, $GNGSA,M,3,73,81,65,72,75,88,87,,,,,,1.02,0.56,0.85*1B
   1878689, $GPZDA,003118.00,31,08,2019,00,00*6D
   1878689, $GNVTG,052.209,T,,M,2.5829,N,4.7835,K,A*16
   1879689, $GPGGA,003119.00,3908.5374631,N,09622.0899398,W,1,21,0.53,331.5241,M,-28.2909,M,,*61
   1879689, $GNGSA,M,3,10,25,14,31,08,27,12,20,18,11,21,24,0.98,0.53,0.83*1D
   1879689, $GNGSA,M,3,73,81,65,72,75,88,87,,,,,,0.98,0.53,0.83*1A
   1879689, $GPZDA,003119.00,31,08,2019,00,00*6C
   1879689, $GNVTG,045.588,T,,M,2.5799,N,4.7780,K,A*1B
   1880690, $GPGGA,003120.00,3908.5379061,N,09622.0892047,W,1,21,0.53,331.4852,M,-28.2909,M,,*66
   1880690, $GNGSA,M,3,10,25,14,31,08,27,12,20,18,11,21,24,0.98,0.53,0.83*1D
   1880690, $GNGSA,M,3,73,81,65,72,75,88,87,,,,,,0.98,0.53,0.83*1A
   1880690, $GPZDA,003120.00,31,08,2019,00,00*66
   1880690, $GNVTG,047.136,T,,M,2.9448,N,5.4538,K,A*18
   1881690, $GPGGA,003121.00,3908.5383216,N,09622.0884673,W,1,21,0.53,331.4726,M,-28.2910,M,,*62
   1881690, $GNGSA,M,3,10,25,14,31,08,27,12,20,18,11,21,24,0.98,0.53,0.83*1D
   1881690, $GNGSA,M,3,73,81,65,72,75,88,87,,,,,,0.98,0.53,0.83*1A
   1881690, $GPZDA,003121.00,31,08,2019,00,00*67
   1881690, $GNVTG,045.786,T,,M,2.6421,N,4.8932,K,A*1C
   1882691, $GPGGA,003122.00,3908.5385300,N,09622.0879212,W,1,20,0.55,331.5795,M,-28.2910,M,,*6E
   1882691, $GNGSA,M,3,10,14,31,08,27,12,20,18,11,21,24,01,1.02,0.55,0.86*1A
   1882691, $GNGSA,M,3,73,81,65,72,75,88,87,,,,,,1.02,0.55,0.86*1B
   1882691, $GPZDA,003122.00,31,08,2019,00,00*64
   1882691, $GNVTG,033.064,T,,M,0.7600,N,1.4075,K,A*17
   1883689, $GPGGA,003123.00,3908.5385226,N,09622.0881418,W,1,21,0.53,331.9221,M,-28.2910,M,,*60
   1883689, $GNGSA,M,3,10,25,14,31,08,27,12,20,18,11,21,24,0.98,0.53,0.83*1D
   1883689, $GNGSA,M,3,73,81,65,72,75,88,87,,,,,,0.98,0.53,0.83*1A
   1883689, $GPZDA,003123.00,31,08,2019,00,00*65
   1883689, $GNVTG,031.033,T,,M,0.3514,N,0.6508,K,A*19
   1884689, $GPGGA,003124.00,3908.5387084,N,09622.0874672,W,1,20,0.54,331.4903,M,-28.2910,M,,*6B
   1884689, $GNGSA,M,3,10,25,14,31,08,27,12,20,18,11,21,24,0.99,0.54,0.83*1B
   1884689, $GNGSA,M,3,73,81,65,72,75,87,,,,,,,0.99,0.54,0.83*1C
   1884689, $GPZDA,003124.00,31,08,2019,00,00*62
   1884689, $GNVTG,081.232,T,,M,2.1453,N,3.9731,K,A*17
   1885689, $GPGGA,003125.00,3908.5389674,N,09622.0868776,W,1,21,0.53,331.5134,M,-28.2910,M,,*6E
   1885689, $GNGSA,M,3,10,25,14,31,08,27,12,20,18,11,21,24,0.98,0.53,0.83*1D
   1885689, $GNGSA,M,3,73,81,65,72,75,88,87,,,,,,0.98,0.53,0.83*1A
   1885689, $GPZDA,003125.00,31,08,2019,00,00*63
   1885689, $GNVTG,063.415,T,,M,2.4124,N,4.4678,K,A*1E
   1886689, $GPGGA,003126.00,3908.5395539,N,09622.0859160,W,1,21,0.53,331.1984,M,-28.2911,M,,*6F
   1886689, $GNGSA,M,3,10,25,14,31,08,27,12,20,18,11,21,24,0.98,0.53,0.83*1D
   1886689, $GNGSA,M,3,73,81,65,72,75,88,87,,,,,,0.98,0.53,0.83*1A
   1886689, $GPZDA,003126.00,31,08,2019,00,00*60
   1886689, $GNVTG,051.077,T,,M,2.5250,N,4.6763,K,A*17
   1887689, $GPGGA,003127.00,3908.5400611,N,09622.0851506,W,1,20,0.55,331.2706,M,-28.2911,M,,*60
   1887689, $GNGSA,M,3,10,25,14,31,08,27,12,20,18,11,21,24,1.00,0.55,0.84*1C
   1887689, $GNGSA,M,3,81,65,72,75,88,87,,,,,,,1.00,0.55,0.84*1F
   1887689, $GPZDA,003127.00,31,08,2019,00,00*61
   1887689, $GNVTG,037.430,T,,M,2.6602,N,4.9268,K,A*11
   1888690, $GPGGA,003128.00,3908.5404612,N,09622.0846037,W,1,21,0.53,331.4365,M,-28.2911,M,,*69
   1888690, $GNGSA,M,3,10,25,14,31,08,27,12,20,18,11,21,24,0.98,0.53,0.83*1D
   1888690, $GNGSA,M,3,73,81,65,72,75,88,87,,,,,,0.98,0.53,0.83*1A
   1888690, $GPZDA,003128.00,31,08,2019,00,00*6E
   1888690, $GNVTG,035.248,T,,M,2.6631,N,4.9320,K,A*17
   1889689, $GPGGA,003129.00,3908.5406452,N,09622.0838987,W,1,21,0.53,331.3932,M,-28.2911,M,,*68
   1889689, $GNGSA,M,3,10,25,14,31,08,27,12,20,18,11,21,24,0.98,0.53,0.83*1D
   1889689, $GNGSA,M,3,73,81,65,72,75,88,87,,,,,,0.98,0.53,0.83*1A
   1889689, $GPZDA,003129.00,31,08,2019,00,00*6F
   1889689, $GNVTG,033.033,T,,M,2.5956,N,4.8070,K,A*15
   1890689, $GPGGA,003130.00,3908.5411376,N,09622.0829750,W,1,19,0.59,331.2979,M,-28.2911,M,,*6C
   1890689, $GNGSA,M,3,10,25,14,31,08,27,12,20,18,11,21,01,1.03,0.59,0.84*14
   1890689, $GNGSA,M,3,81,65,72,75,88,87,,,,,,,1.03,0.59,0.84*10
   1890689, $GPZDA,003130.00,31,08,2019,00,00*67
   1890689, $GNVTG,038.757,T,,M,2.9273,N,5.4213,K,A*11
   1891689, $GPGGA,003131.00,3908.5414220,N,09622.0826156,W,1,18,0.67,332.4861,M,-28.2911,M,,*64
   1891689, $GNGSA,M,3,10,25,14,31,08,27,20,18,11,21,01,32,1.12,0.67,0.90*1E
   1891689, $GNGSA,M,3,81,65,72,75,88,87,,,,,,,1.12,0.67,0.90*18
   1891689, $GPZDA,003131.00,31,08,2019,00,00*66
   1891689, $GNVTG,040.452,T,,M,2.5429,N,4.7095,K,A*13
   1892689, $GPGGA,003132.00,3908.5419035,N,09622.0818889,W,1,19,0.57,332.7117,M,-28.2911,M,,*63
   1892689, $GNGSA,M,3,10,25,14,31,08,27,12,20,18,21,24,01,1.02,0.57,0.85*1C
   1892689, $GNGSA,M,3,81,65,72,75,88,87,,,,,,,1.02,0.57,0.85*1E
   1892689, $GPZDA,003132.00,31,08,2019,00,00*65
   1892689, $GNVTG,047.156,T,,M,2.4095,N,4.4624,K,A*18
   1893689, $GPGGA,003133.00,3908.5424828,N,09622.0811720,W,1,20,0.55,332.6637,M,-28.2911,M,,*61
   1893689, $GNGSA,M,3,10,25,14,31,08,27,12,20,18,11,21,24,1.00,0.55,0.84*1C
   1893689, $GNGSA,M,3,81,65,72,75,88,87,,,,,,,1.00,0.55,0.84*1F
   1893689, $GPZDA,003133.00,31,08,2019,00,00*64
   1893689, $GNVTG,049.086,T,,M,2.6214,N,4.8548,K,A*16
   1894689, $GPGGA,003134.00,3908.5430006,N,09622.0806497,W,1,19,0.59,332.9996,M,-28.2911,M,,*63
   1894689, $GNGSA,M,3,10,25,14,31,08,27,20,18,11,21,24,01,1.06,0.59,0.88*18
   1894689, $GNGSA,M,3,81,65,72,75,88,87,,,,,,,1.06,0.59,0.88*19
   1894689, $GPZDA,003134.00,31,08,2019,00,00*63
   1894689, $GNVTG,058.568,T,,M,3.0173,N,5.5880,K,A*13
   1895690, $GPGGA,003135.00,3908.5435445,N,09622.0799354,W,1,18,0.67,332.9777,M,-28.2911,M,,*68
   1895690, $GNGSA,M,3,10,25,14,31,08,27,20,18,11,21,01,32,1.12,0.67,0.90*1E
   1895690, $GNGSA,M,3,81,65,72,75,88,87,,,,,,,1.12,0.67,0.90*18
   1895690, $GPZDA,003135.00,31,08,2019,00,00*62
   1895690, $GNVTG,044.759,T,,M,2.5371,N,4.6987,K,A*1E
   1896688, $GPGGA,003136.00,3908.5443344,N,09622.0792984,W,1,16,0.70,332.0118,M,-28.2912,M,,*6D
   1896688, $GNGSA,M,3,10,25,14,31,08,27,20,21,01,32,,,1.16,0.70,0.93*16
   1896688, $GNGSA,M,3,81,65,72,75,88,87,,,,,,,1.16,0.70,0.93*19
   1896688, $GPZDA,003136.00,31,08,2019,00,00*61
   1896688, $GNVTG,032.503,T,,M,2.5103,N,4.6490,K,A*1E
   1897689, $GPGGA,003137.00,3908.5443104,N,09622.0790541,W,1,18,0.61,333.5028,M,-28.2912,M,,*65
   1897689, $GNGSA,M,3,10,25,14,31,08,27,20,18,21,24,01,32,1.08,0.61,0.89*1D
   1897689, $GNGSA,M,3,81,65,72,75,88,87,,,,,,,1.08,0.61,0.89*1D
   1897689, $GPZDA,003137.00,31,08,2019,00,00*60
   1897689, $GNVTG,032.955,T,,M,2.4112,N,4.4656,K,A*1A
   1898689, $GPGGA,003138.00,3908.5452119,N,09622.0784147,W,1,18,0.60,332.0873,M,-28.2912,M,,*62
   1898689, $GNGSA,M,3,10,25,14,31,08,27,20,11,21,24,01,32,1.06,0.60,0.88*1A
   1898689, $GNGSA,M,3,81,65,72,75,88,87,,,,,,,1.06,0.60,0.88*13
   1898689, $GPZDA,003138.00,31,08,2019,00,00*6F
   1898689, $GNVTG,029.517,T,,M,2.5308,N,4.6870,K,A*1A
   1899689, $GPGGA,003139.00,3908.5457380,N,09622.0779474,W,1,18,0.60,332.0263,M,-28.2912,M,,*68
   1899689, $GNGSA,M,3,10,25,14,31,08,27,20,11,21,24,01,32,1.06,0.60,0.88*1A
   1899689, $GNGSA,M,3,81,65,72,75,88,87,,,,,,,1.06,0.60,0.88*13
   1899689, $GPZDA,003139.00,31,08,2019,00,00*6E
   1899689, $GNVTG,032.900,T,,M,2.4629,N,4.5613,K,A*15
   1900689, $GPGGA,003140.00,3908.5464212,N,09622.0772894,W,1,16,0.74,331.5409,M,-28.2912,M,,*62
   1900689, $GNGSA,M,3,10,25,14,31,08,27,20,11,21,01,32,,1.17,0.74,0.91*11
   1900689, $GNGSA,M,3,81,65,72,75,88,,,,,,,,1.17,0.74,0.91*11
   1900689, $GPZDA,003140.00,31,08,2019,00,00*60
   1900689, $GNVTG,038.099,T,,M,1.7110,N,3.1688,K,A*1A
   1901688, $GPGGA,003141.00,3908.5467113,N,09622.0771403,W,1,18,0.67,331.8585,M,-28.2913,M,,*66
   1901688, $GNGSA,M,3,10,25,14,31,08,27,20,18,11,21,01,32,1.12,0.67,0.90*1E
   1901688, $GNGSA,M,3,81,65,72,75,88,87,,,,,,,1.12,0.67,0.90*18
   1901688, $GPZDA,003141.00,31,08,2019,00,00*61
   1901688, $GNVTG,042.764,T,,M,1.8458,N,3.4183,K,A*1D
   1902690, $GPGGA,003142.00,3908.5468258,N,09622.0771887,W,1,18,0.61,332.1260,M,-28.2913,M,,*66
   1902690, $GNGSA,M,3,10,25,14,31,08,27,20,18,11,21,24,01,1.11,0.61,0.93*1F
   1902690, $GNGSA,M,3,65,72,75,88,87,,,,,,,,1.11,0.61,0.93*17
   1902690, $GPZDA,003142.00,31,08,2019,00,00*62
   1902690, $GNVTG,335.079,T,,M,0.9363,N,1.7340,K,A*16
   1903689, $GPGGA,003143.00,3908.5470050,N,09622.0768336,W,1,17,0.61,331.7198,M,-28.2913,M,,*63
   1903689, $GNGSA,M,3,12,10,14,31,27,20,18,11,21,24,01,32,1.12,0.61,0.93*11
   1903689, $GNGSA,M,3,65,72,75,88,87,,,,,,,,1.12,0.61,0.93*14
   1903689, $GPZDA,003143.00,31,08,2019,00,00*63
   1903689, $GNVTG,138.089,T,,M,0.7304,N,1.3527,K,A*1A
   1904689, $GPGGA,003144.00,3908.5472673,N,09622.0765063,W,1,16,0.62,331.0928,M,-28.2913,M,,*69
   1904689, $GNGSA,M,3,12,14,31,08,20,18,11,21,24,01,32,,1.23,0.62,1.06*11
   1904689, $GNGSA,M,3,65,72,75,88,87,,,,,,,,1.23,0.62,1.06*18
   1904689, $GPZDA,003144.00,31,08,2019,00,00*64
   1904689, $GNVTG,051.662,T,,M,0.1003,N,0.1858,K,A*13
   1905689, $GPGGA,003145.00,3908.5473073,N,09622.0765398,W,1,15,0.64,331.0482,M,-28.2913,M,,*60
   1905689, $GNGSA,M,3,12,14,31,20,18,11,21,24,01,32,,,1.23,0.64,1.05*1C
   1905689, $GNGSA,M,3,81,65,72,75,87,,,,,,,,1.23,0.64,1.05*14
   1905689, $GPZDA,003145.00,31,08,2019,00,00*65
   1905689, $GNVTG,354.632,T,,M,0.4165,N,0.7714,K,A*15
   1906688, $GPGGA,003146.00,3908.5474957,N,09622.0765821,W,1,16,0.61,332.4428,M,-28.2913,M,,*63
   1906688, $GNGSA,M,3,12,14,31,20,18,11,21,24,01,32,,,1.20,0.61,1.03*1C
   1906688, $GNGSA,M,3,81,65,71,72,75,87,,,,,,,1.20,0.61,1.03*12
   1906688, $GPZDA,003146.00,31,08,2019,00,00*66
   1906688, $GNVTG,011.996,T,,M,0.1950,N,0.3611,K,A*1D
   1907689, $GPGGA,003147.00,3908.5474338,N,09622.0767831,W,1,13,0.73,332.8112,M,-28.2913,M,,*64
   1907689, $GNGSA,M,3,14,20,18,11,21,24,01,32,,,,,1.30,0.73,1.08*14
   1907689, $GNGSA,M,3,81,65,71,72,87,,,,,,,,1.30,0.73,1.08*19
   1907689, $GPZDA,003147.00,31,08,2019,00,00*67
   1907689, $GNVTG,212.859,T,,M,0.2822,N,0.5226,K,A*1F
   1908688, $GPGGA,003148.00,3908.5476849,N,09622.0766458,W,1,16,0.63,332.3589,M,-28.2913,M,,*6F
   1908688, $GNGSA,M,3,12,10,14,31,20,18,11,21,24,01,32,,1.12,0.63,0.92*17
   1908688, $GNGSA,M,3,81,65,71,72,87,,,,,,,,1.12,0.63,0.92*1A
   1908688, $GPZDA,003148.00,31,08,2019,00,00*68
   1908688, $GNVTG,213.001,T,,M,0.3781,N,0.7003,K,A*1B
   1909690, $GPGGA,003149.00,3908.5473635,N,09622.0771923,W,1,16,0.63,332.4104,M,-28.2913,M,,*6F
   1909690, $GNGSA,M,3,12,10,14,31,20,18,11,21,24,01,32,,1.12,0.63,0.92*17
   1909690, $GNGSA,M,3,81,65,71,72,87,,,,,,,,1.12,0.63,0.92*1A
   1909690, $GPZDA,003149.00,31,08,2019,00,00*69
   1909690, $GNVTG,216.487,T,,M,1.6368,N,3.0314,K,A*12
   1910688, $GPGGA,003150.00,3908.5469446,N,09622.0777174,W,1,15,0.67,332.3862,M,-28.2913,M,,*6F
   1910688, $GNGSA,M,3,10,14,31,20,18,11,21,24,01,32,,,1.18,0.67,0.97*1F
   1910688, $GNGSA,M,3,81,65,71,72,87,,,,,,,,1.18,0.67,0.97*11
   1910688, $GPZDA,003150.00,31,08,2019,00,00*61
   1910688, $GNVTG,222.405,T,,M,2.0594,N,3.8140,K,A*14
   1911688, $GPGGA,003151.00,3908.5465495,N,09622.0783288,W,1,16,0.63,332.6687,M,-28.2912,M,,*61
   1911688, $GNGSA,M,3,12,10,14,31,20,18,11,21,24,01,32,,1.12,0.63,0.92*17
   1911688, $GNGSA,M,3,81,65,71,72,87,,,,,,,,1.12,0.63,0.92*1A
   1911688, $GPZDA,003151.00,31,08,2019,00,00*60
   1911688, $GNVTG,220.136,T,,M,2.3738,N,4.3963,K,A*11
   1912688, $GPGGA,003152.00,3908.5459142,N,09622.0789517,W,1,16,0.63,332.4198,M,-28.2912,M,,*62
   1912688, $GNGSA,M,3,12,10,14,31,20,18,11,21,24,01,32,,1.12,0.63,0.92*17
   1912688, $GNGSA,M,3,81,65,71,72,87,,,,,,,,1.12,0.63,0.92*1A
   1912688, $GPZDA,003152.00,31,08,2019,00,00*63
   1912688, $GNVTG,231.533,T,,M,2.7978,N,5.1816,K,A*1E
   1913688, $GPGGA,003153.00,3908.5452814,N,09622.0795893,W,1,15,0.67,332.1902,M,-28.2912,M,,*67
   1913688, $GNGSA,M,3,12,10,14,31,20,18,11,21,24,01,32,,1.17,0.67,0.96*12
   1913688, $GNGSA,M,3,81,65,72,87,,,,,,,,,1.17,0.67,0.96*19
   1913688, $GPZDA,003153.00,31,08,2019,00,00*62
   1913688, $GNVTG,223.509,T,,M,2.6871,N,4.9765,K,A*1F
   1914689, $GPGGA,003154.00,3908.5447513,N,09622.0801481,W,1,14,0.74,332.0622,M,-28.2912,M,,*6C
   1914689, $GNGSA,M,3,10,14,31,20,18,11,21,24,01,32,,,1.29,0.74,1.05*15
   1914689, $GNGSA,M,3,81,65,72,87,,,,,,,,,1.29,0.74,1.05*1D
   1914689, $GPZDA,003154.00,31,08,2019,00,00*65
   1914689, $GNVTG,214.992,T,,M,2.6097,N,4.8331,K,A*11
   1915689, $GPGGA,003155.00,3908.5443436,N,09622.0806471,W,1,15,0.73,331.8784,M,-28.2912,M,,*67
   1915689, $GNGSA,M,3,12,10,14,31,20,18,11,21,24,01,32,,1.21,0.73,0.96*12
   1915689, $GNGSA,M,3,81,65,73,72,,,,,,,,,1.21,0.73,0.96*12
   1915689, $GPZDA,003155.00,31,08,2019,00,00*64
   1915689, $GNVTG,217.346,T,,M,2.5856,N,4.7886,K,A*1F
   1916689, $GPGGA,003156.00,3908.5438456,N,09622.0812384,W,1,15,0.65,331.7621,M,-28.2912,M,,*60
   1916689, $GNGSA,M,3,12,10,14,31,20,18,11,21,24,01,32,,1.19,0.65,0.99*11
   1916689, $GNGSA,M,3,65,73,72,87,,,,,,,,,1.19,0.65,0.99*17
   1916689, $GPZDA,003156.00,31,08,2019,00,00*67
   1916689, $GNVTG,216.190,T,,M,2.9517,N,5.4665,K,A*12
   1917688, $GPGGA,003157.00,3908.5432734,N,09622.0819600,W,1,14,0.79,331.6446,M,-28.2912,M,,*60
   1917688, $GNGSA,M,3,10,14,31,20,18,11,21,24,01,32,,,1.30,0.79,1.03*16
   1917688, $GNGSA,M,3,81,65,73,72,,,,,,,,,1.30,0.79,1.03*15
   1917688, $GPZDA,003157.00,31,08,2019,00,00*66
   1917688, $GNVTG,229.384,T,,M,2.6926,N,4.9867,K,A*18
   1918688, $GPGGA,003158.00,3908.5427346,N,09622.0826886,W,1,14,0.79,331.5927,M,-28.2912,M,,*6F
   1918688, $GNGSA,M,3,10,14,31,20,18,11,21,24,01,32,,,1.30,0.79,1.03*16
   1918688, $GNGSA,M,3,81,65,73,72,,,,,,,,,1.30,0.79,1.03*15
   1918688, $GPZDA,003158.00,31,08,2019,00,00*69
   1918688, $GNVTG,224.668,T,,M,2.7585,N,5.1087,K,A*19
   1919688, $GPGGA,003159.00,3908.5422599,N,09622.0833790,W,1,14,0.79,331.5798,M,-28.2912,M,,*69
   1919688, $GNGSA,M,3,10,14,31,20,18,11,21,24,01,32,,,1.30,0.79,1.03*16
   1919688, $GNGSA,M,3,81,65,73,72,,,,,,,,,1.30,0.79,1.03*15
   1919688, $GPZDA,003159.00,31,08,2019,00,00*68
   1919688, $GNVTG,237.268,T,,M,2.9068,N,5.3834,K,A*15
   1920688, $GPGGA,003200.00,3908.5419107,N,09622.0839729,W,1,14,0.79,331.7967,M,-28.2912,M,,*69
