
   2327687, $GPGGA,003847.00,3908.5281550,N,09622.1127063,W,1,13,0.85,330.7434,M,-28.2905,M,,*67
   2327687, $GNGSA,M,3,31,10,14,21,12,20,25,32,,,,,1.43,0.85,1.15*1C
   2327687, $GNGSA,M,3,81,72,73,75,65,,,,,,,,1.43,0.85,1.15*17
   2327687, $GPZDA,003847.00,31,08,2019,00,00*6E
   2327687, $GNVTG,270.983,T,,M,0.0830,N,0.1537,K,A*1F
   2328687, $GPGGA,003848.00,3908.5281273,N,09622.1126873,W,1,13,0.85,330.5630,M,-28.2905,M,,*62
   2328687, $GNGSA,M,3,31,10,14,21,12,20,25,32,,,,,1.43,0.85,1.15*1C
   2328687, $GNGSA,M,3,81,72,73,75,65,,,,,,,,1.43,0.85,1.15*17
   2328687, $GPZDA,003848.00,31,08,2019,00,00*61
   2328687, $GNVTG,174.017,T,,M,0.0444,N,0.0822,K,A*1B
   2329687, $GPGGA,003849.00,3908.5281104,N,09622.1126982,W,1,13,0.85,330.5417,M,-28.2905,M,,*68
   2329687, $GNGSA,M,3,31,10,14,21,12,20,25,32,,,,,1.43,0.85,1.15*1C
   2329687, $GNGSA,M,3,81,72,73,75,65,,,,,,,,1.43,0.85,1.15*17
   2329687, $GPZDA,003849.00,31,08,2019,00,00*60
   2329687, $GNVTG,323.991,T,,M,0.0956,N,0.1770,K,A*1B
   2330686, $GPGGA,003850.00,3908.5280849,N,09622.1127839,W,1,12,1.04,330.7438,M,-28.2905,M,,*67
   2330686, $GNGSA,M,3,31,10,14,21,12,20,25,32,,,,,1.81,1.04,1.48*12
   2330686, $GNGSA,M,3,72,73,75,65,,,,,,,,,1.81,1.04,1.48*10
   2330686, $GPZDA,003850.00,31,08,2019,00,00*68
   2330686, $GNVTG,269.660,T,,M,0.7617,N,1.4107,K,A*1A
   2331687, $GPGGA,003851.00,3908.5280735,N,09622.1134130,W,1,12,1.04,330.8622,M,-28.2905,M,,*66
   2331687, $GNGSA,M,3,31,10,14,21,12,20,25,32,,,,,1.81,1.04,1.48*12
   2331687, $GNGSA,M,3,72,73,75,65,,,,,,,,,1.81,1.04,1.48*10
   2331687, $GPZDA,003851.00,31,08,2019,00,00*69
   2331687, $GNVTG,287.541,T,,M,2.4398,N,4.5186,K,A*14
   2332687, $GPGGA,003852.00,3908.5278995,N,09622.1138373,W,1,12,1.04,331.8375,M,-28.2905,M,,*69
   2332687, $GNGSA,M,3,31,10,14,21,12,20,25,32,,,,,1.81,1.04,1.48*12
   2332687, $GNGSA,M,3,72,73,75,65,,,,,,,,,1.81,1.04,1.48*10
   2332687, $GPZDA,003852.00,31,08,2019,00,00*6A
   2332687, $GNVTG,275.135,T,,M,2.7105,N,5.0199,K,A*11
   2333687, $GPGGA,003853.00,3908.5279603,N,09622.1149243,W,1,13,0.97,331.7463,M,-28.2905,M,,*68
   2333687, $GNGSA,M,3,31,10,24,14,21,12,20,25,32,,,,1.68,0.97,1.38*1F
   2333687, $GNGSA,M,3,72,73,75,65,,,,,,,,,1.68,0.97,1.38*1B
   2333687, $GPZDA,003853.00,31,08,2019,00,00*6B
   2333687, $GNVTG,273.518,T,,M,2.6194,N,4.8512,K,A*1B
   2334687, $GPGGA,003854.00,3908.5279397,N,09622.1157460,W,1,14,0.88,331.9710,M,-28.2905,M,,*6F
   2334687, $GNGSA,M,3,31,10,24,14,21,12,20,25,32,,,,1.56,0.88,1.29*1C
   2334687, $GNGSA,M,3,72,87,73,75,65,,,,,,,,1.56,0.88,1.29*17
   2334687, $GPZDA,003854.00,31,08,2019,00,00*6C
   2334687, $GNVTG,260.612,T,,M,2.6208,N,4.8538,K,A*1E
   2335687, $GPGGA,003855.00,3908.5279469,N,09622.1166970,W,1,14,0.88,331.9108,M,-28.2905,M,,*69
   2335687, $GNGSA,M,3,31,10,24,14,21,12,20,25,32,,,,1.56,0.88,1.29*1C
   2335687, $GNGSA,M,3,72,87,73,75,65,,,,,,,,1.56,0.88,1.29*17
   2335687, $GPZDA,003855.00,31,08,2019,00,00*6D
   2335687, $GNVTG,264.194,T,,M,2.8252,N,5.2323,K,A*15
   2336686, $GPGGA,003856.00,3908.5278636,N,09622.1176328,W,1,14,0.88,331.9972,M,-28.2905,M,,*60
   2336686, $GNGSA,M,3,31,10,24,14,21,12,20,25,32,,,,1.56,0.88,1.29*1C
   2336686, $GNGSA,M,3,72,87,73,75,65,,,,,,,,1.56,0.88,1.29*17
   2336686, $GPZDA,003856.00,31,08,2019,00,00*6E
   2336686, $GNVTG,263.121,T,,M,2.5769,N,4.7725,K,A*1A
   2337687, $GPGGA,003857.00,3908.5277812,N,09622.1186163,W,1,14,0.88,332.1070,M,-28.2905,M,,*64
   2337687, $GNGSA,M,3,31,10,24,14,21,12,20,25,32,,,,1.56,0.88,1.29*1C
   2337687, $GNGSA,M,3,72,87,73,75,65,,,,,,,,1.56,0.88,1.29*17
   2337687, $GPZDA,003857.00,31,08,2019,00,00*6F
   2337687, $GNVTG,265.077,T,,M,2.1028,N,3.8945,K,A*18
   2338686, $GPGGA,003858.00,3908.5277485,N,09622.1195437,W,1,14,0.88,332.2781,M,-28.2905,M,,*65
   2338686, $GNGSA,M,3,31,10,24,14,21,12,20,25,32,,,,1.56,0.88,1.29*1C
   2338686, $GNGSA,M,3,72,87,73,75,65,,,,,,,,1.56,0.88,1.29*17
   2338686, $GPZDA,003858.00,31,08,2019,00,00*60
   2338686, $GNVTG,274.495,T,,M,2.4123,N,4.4676,K,A*1B
   2339687, $GPGGA,003859.00,3908.5277250,N,09622.1205137,W,1,14,0.88,332.2179,M,-28.2905,M,,*64
   2339687, $GNGSA,M,3,31,10,24,14,21,12,20,25,32,,,,1.56,0.88,1.29*1C
   2339687, $GNGSA,M,3,72,87,73,75,65,,,,,,,,1.56,0.88,1.29*17
   2339687, $GPZDA,003859.00,31,08,2019,00,00*61
   2339687, $GNVTG,271.425,T,,M,2.6819,N,4.9668,K,A*15
   2340687, $GPGGA,003900.00,3908.5275742,N,09622.1214494,W,1,14,0.88,332.2155,M,-28.2904,M,,*6E
   2340687, $GNGSA,M,3,31,10,24,14,21,12,20,25,32,,,,1.56,0.88,1.29*1C
   2340687, $GNGSA,M,3,72,87,73,75,65,,,,,,,,1.56,0.88,1.29*17
   2340687, $GPZDA,003900.00,31,08,2019,00,00*6C
   2340687, $GNVTG,261.065,T,,M,2.9671,N,5.4952,K,A*11
   2341686, $GPGGA,003901.00,3908.5274818,N,09622.1224472,W,1,14,0.88,332.1208,M,-28.2904,M,,*6D
   2341686, $GNGSA,M,3,31,10,24,14,21,12,20,25,32,,,,1.56,0.88,1.29*1C
   2341686, $GNGSA,M,3,72,87,73,75,65,,,,,,,,1.56,0.88,1.29*17
   2341686, $GPZDA,003901.00,31,08,2019,00,00*6D
   2341686, $GNVTG,262.435,T,,M,2.9233,N,5.4139,K,A*14
   2342686, $GPGGA,003902.00,3908.5274283,N,09622.1234115,W,1,13,0.91,332.1013,M,-28.2904,M,,*64
   2342686, $GNGSA,M,3,31,10,24,14,21,12,20,25,32,,,,1.62,0.91,1.34*1F
   2342686, $GNGSA,M,3,72,87,75,65,,,,,,,,,1.62,0.91,1.34*10
   2342686, $GPZDA,003902.00,31,08,2019,00,00*6E
   2342686, $GNVTG,253.620,T,,M,2.7215,N,5.0402,K,A*13
   2343686, $GPGGA,003903.00,3908.5272898,N,09622.1242545,W,1,13,0.97,332.2910,M,-28.2904,M,,*6C
   2343686, $GNGSA,M,3,31,10,24,14,21,12,20,25,32,,,,1.68,0.97,1.38*1F
   2343686, $GNGSA,M,3,72,73,75,65,,,,,,,,,1.68,0.97,1.38*1B
   2343686, $GPZDA,003903.00,31,08,2019,00,00*6F
   2343686, $GNVTG,254.036,T,,M,2.9265,N,5.4199,K,A*1F
   2344687, $GPGGA,003904.00,3908.5271355,N,09622.1252309,W,1,14,0.88,332.3112,M,-28.2904,M,,*6F
   2344687, $GNGSA,M,3,31,10,24,14,21,12,20,25,32,,,,1.56,0.88,1.29*1C
   2344687, $GNGSA,M,3,72,87,73,75,65,,,,,,,,1.56,0.88,1.29*17
   2344687, $GPZDA,003904.00,31,08,2019,00,00*68
   2344687, $GNVTG,252.578,T,,M,2.6347,N,4.8795,K,A*1F
   2345686, $GPGGA,003905.00,3908.5269707,N,09622.1260890,W,1,14,0.88,332.4823,M,-28.2903,M,,*65
   2345686, $GNGSA,M,3,31,10,24,14,21,12,20,25,32,,,,1.56,0.88,1.29*1C
   2345686, $GNGSA,M,3,72,87,73,75,65,,,,,,,,1.56,0.88,1.29*17
   2345686, $GPZDA,003905.00,31,08,2019,00,00*69
   2345686, $GNVTG,252.712,T,,M,2.4781,N,4.5894,K,A*1E
   2346686, $GPGGA,003906.00,3908.5267654,N,09622.1269932,W,1,14,0.88,332.4553,M,-28.2903,M,,*65
   2346686, $GNGSA,M,3,31,10,24,14,21,12,20,25,32,,,,1.56,0.88,1.29*1C
   2346686, $GNGSA,M,3,72,87,73,75,65,,,,,,,,1.56,0.88,1.29*17
   2346686, $GPZDA,003906.00,31,08,2019,00,00*6A
   2346686, $GNVTG,260.574,T,,M,2.1938,N,4.0630,K,A*11
   2347687, $GPGGA,003907.00,3908.5265334,N,09622.1277962,W,1,14,0.88,332.4136,M,-28.2903,M,,*68
   2347687, $GNGSA,M,3,31,10,24,14,21,12,20,25,32,,,,1.56,0.88,1.29*1C
   2347687, $GNGSA,M,3,72,87,73,75,65,,,,,,,,1.56,0.88,1.29*17
   2347687, $GPZDA,003907.00,31,08,2019,00,00*6B
   2347687, $GNVTG,250.121,T,,M,2.3141,N,4.2858,K,A*10
   2348686, $GPGGA,003908.00,3908.5263540,N,09622.1285082,W,1,15,0.86,332.2791,M,-28.2903,M,,*6C
   2348686, $GNGSA,M,3,31,10,24,14,21,12,20,25,32,,,,1.54,0.86,1.28*11
   2348686, $GNGSA,M,3,72,71,87,73,75,65,,,,,,,1.54,0.86,1.28*1C
   2348686, $GPZDA,003908.00,31,08,2019,00,00*64
   2348686, $GNVTG,265.172,T,,M,1.5954,N,2.9547,K,A*17
   2349686, $GPGGA,003909.00,3908.5261333,N,09622.1293121,W,1,15,0.86,332.1920,M,-28.2903,M,,*65
   2349686, $GNGSA,M,3,31,10,24,14,21,12,20,25,32,,,,1.54,0.86,1.28*11
   2349686, $GNGSA,M,3,72,71,87,73,75,65,,,,,,,1.54,0.86,1.28*1C
   2349686, $GPZDA,003909.00,31,08,2019,00,00*65
   2349686, $GNVTG,251.344,T,,M,2.5057,N,4.6405,K,A*10
   2350687, $GPGGA,003910.00,3908.5258613,N,09622.1301501,W,1,15,0.86,331.8594,M,-28.2903,M,,*65
   2350687, $GNGSA,M,3,31,10,24,14,21,12,20,25,32,,,,1.54,0.86,1.28*11
   2350687, $GNGSA,M,3,72,71,87,73,75,65,,,,,,,1.54,0.86,1.28*1C
   2350687, $GPZDA,003910.00,31,08,2019,00,00*6D
   2350687, $GNVTG,250.300,T,,M,2.2568,N,4.1796,K,A*11
   2351686, $GPGGA,003911.00,3908.5255730,N,09622.1308877,W,1,14,0.89,331.9816,M,-28.2902,M,,*65
   2351686, $GNGSA,M,3,31,10,24,14,21,12,20,25,32,,,,1.59,0.89,1.32*18
   2351686, $GNGSA,M,3,72,71,87,75,65,,,,,,,,1.59,0.89,1.32*11
   2351686, $GPZDA,003911.00,31,08,2019,00,00*6C
   2351686, $GNVTG,246.907,T,,M,2.2109,N,4.0946,K,A*1A
   2352687, $GPGGA,003912.00,3908.5251914,N,09622.1316301,W,1,15,0.86,332.0466,M,-28.2902,M,,*60
   2352687, $GNGSA,M,3,31,10,24,14,21,12,20,25,32,,,,1.54,0.86,1.28*11
   2352687, $GNGSA,M,3,72,71,87,73,75,65,,,,,,,1.54,0.86,1.28*1C
   2352687, $GPZDA,003912.00,31,08,2019,00,00*6F
   2352687, $GNVTG,241.947,T,,M,2.6599,N,4.9261,K,A*17
   2353686, $GPGGA,003913.00,3908.5248105,N,09622.1324201,W,1,13,0.90,331.1542,M,-28.2902,M,,*65
   2353686, $GNGSA,M,3,31,10,24,14,12,20,25,32,,,,,1.63,0.90,1.36*1E
   2353686, $GNGSA,M,3,72,87,73,75,65,,,,,,,,1.63,0.90,1.36*16
   2353686, $GPZDA,003913.00,31,08,2019,00,00*6E
   2353686, $GNVTG,222.530,T,,M,2.8252,N,5.2322,K,A*1C
   2354687, $GPGGA,003914.00,3908.5247204,N,09622.1337029,W,1,15,0.73,329.9425,M,-28.2902,M,,*6F
   2354687, $GNGSA,M,3,31,10,24,14,18,21,12,20,25,32,,,1.38,0.73,1.17*14
   2354687, $GNGSA,M,3,72,87,73,75,65,,,,,,,,1.38,0.73,1.17*16
   2354687, $GPZDA,003914.00,31,08,2019,00,00*69
   2354687, $GNVTG,227.832,T,,M,2.8402,N,5.2601,K,A*11
   2355686, $GPGGA,003915.00,3908.5242782,N,09622.1344872,W,1,13,0.78,329.7144,M,-28.2902,M,,*63
   2355686, $GNGSA,M,3,31,10,24,14,18,12,20,25,32,,,,1.53,0.78,1.32*16
   2355686, $GNGSA,M,3,87,73,75,65,,,,,,,,,1.53,0.78,1.32*12
   2355686, $GPZDA,003915.00,31,08,2019,00,00*68
   2355686, $GNVTG,221.914,T,,M,2.8520,N,5.2819,K,A*14
   2356687, $GPGGA,003916.00,3908.5238079,N,09622.1352171,W,1,14,0.75,329.7860,M,-28.2901,M,,*65
   2356687, $GNGSA,M,3,31,10,24,14,18,12,20,25,32,,,,1.44,0.75,1.23*1D
   2356687, $GNGSA,M,3,72,87,73,75,65,,,,,,,,1.44,0.75,1.23*1C
   2356687, $GPZDA,003916.00,31,08,2019,00,00*6B
   2356687, $GNVTG,227.367,T,,M,2.7147,N,5.0277,K,A*16
   2357687, $GPGGA,003917.00,3908.5232813,N,09622.1359157,W,1,13,0.79,329.9068,M,-28.2901,M,,*60
   2357687, $GNGSA,M,3,31,10,24,14,18,12,20,25,32,,,,1.49,0.79,1.26*19
   2357687, $GNGSA,M,3,72,87,75,65,,,,,,,,,1.49,0.79,1.26*1C
   2357687, $GPZDA,003917.00,31,08,2019,00,00*6A
   2357687, $GNVTG,220.762,T,,M,2.6322,N,4.8749,K,A*11
   2358687, $GPGGA,003918.00,3908.5226630,N,09622.1365832,W,1,14,0.75,330.0905,M,-28.2901,M,,*68
   2358687, $GNGSA,M,3,31,10,24,14,18,12,20,25,32,,,,1.44,0.75,1.23*1D
   2358687, $GNGSA,M,3,72,87,73,75,65,,,,,,,,1.44,0.75,1.23*1C
   2358687, $GPZDA,003918.00,31,08,2019,00,00*65
   2358687, $GNVTG,236.833,T,,M,2.5641,N,4.7487,K,A*10
   2359687, $GPGGA,003919.00,3908.5221721,N,09622.1373575,W,1,14,0.75,330.3414,M,-28.2901,M,,*68
   2359687, $GNGSA,M,3,31,10,24,14,18,12,20,25,32,,,,1.44,0.75,1.23*1D
   2359687, $GNGSA,M,3,72,87,73,75,65,,,,,,,,1.44,0.75,1.23*1C
   2359687, $GPZDA,003919.00,31,08,2019,00,00*64
   2359687, $GNVTG,238.525,T,,M,2.6244,N,4.8603,K,A*17
   2360686, $GPGGA,003920.00,3908.5216003,N,09622.1380245,W,1,14,0.75,330.6491,M,-28.2901,M,,*61
   2360686, $GNGSA,M,3,31,10,24,14,18,12,20,25,32,,,,1.44,0.75,1.23*1D
   2360686, $GNGSA,M,3,72,87,73,75,65,,,,,,,,1.44,0.75,1.23*1C
   2360686, $GPZDA,003920.00,31,08,2019,00,00*6E
   2360686, $GNVTG,240.577,T,,M,3.1170,N,5.7727,K,A*14
   2361687, $GPGGA,003921.00,3908.5213189,N,09622.1390954,W,1,15,0.67,329.6903,M,-28.2900,M,,*61
   2361687, $GNGSA,M,3,31,10,24,14,18,12,20,25,01,32,,,1.25,0.67,1.06*1F
   2361687, $GNGSA,M,3,72,87,73,75,65,,,,,,,,1.25,0.67,1.06*1F
   2361687, $GPZDA,003921.00,31,08,2019,00,00*6F
   2361687, $GNVTG,235.157,T,,M,2.8494,N,5.2771,K,A*11
   2362687, $GPGGA,003922.00,3908.5207935,N,09622.1397183,W,1,15,0.67,329.8635,M,-28.2900,M,,*69
   2362687, $GNGSA,M,3,31,10,24,14,18,12,20,25,01,32,,,1.25,0.67,1.06*1F
   2362687, $GNGSA,M,3,72,87,73,75,65,,,,,,,,1.25,0.67,1.06*1F
   2362687, $GPZDA,003922.00,31,08,2019,00,00*6C
   2362687, $GNVTG,228.009,T,,M,2.7884,N,5.1640,K,A*15
   2363686, $GPGGA,003923.00,3908.5202363,N,09622.1405104,W,1,14,0.69,329.7738,M,-28.2900,M,,*6B
   2363686, $GNGSA,M,3,31,10,24,14,18,12,20,25,01,32,,,1.31,0.69,1.11*12
   2363686, $GNGSA,M,3,87,73,75,65,,,,,,,,,1.31,0.69,1.11*17
   2363686, $GPZDA,003923.00,31,08,2019,00,00*6D
   2363686, $GNVTG,218.080,T,,M,2.8796,N,5.3330,K,A*14
   2364686, $GPGGA,003924.00,3908.5197363,N,09622.1413082,W,1,15,0.67,329.8782,M,-28.2900,M,,*6A
   2364686, $GNGSA,M,3,31,10,24,14,18,12,20,25,01,32,,,1.25,0.67,1.06*1F
   2364686, $GNGSA,M,3,72,87,73,75,65,,,,,,,,1.25,0.67,1.06*1F
   2364686, $GPZDA,003924.00,31,08,2019,00,00*6A
   2364686, $GNVTG,224.209,T,,M,3.0065,N,5.5681,K,A*13
   2365687, $GPGGA,003925.00,3908.5193006,N,09622.1420791,W,1,15,0.67,329.8868,M,-28.2900,M,,*61
   2365687, $GNGSA,M,3,31,10,24,14,18,12,20,25,01,32,,,1.25,0.67,1.06*1F
   2365687, $GNGSA,M,3,72,87,73,75,65,,,,,,,,1.25,0.67,1.06*1F
   2365687, $GPZDA,003925.00,31,08,2019,00,00*6B
   2365687, $GNVTG,226.183,T,,M,2.7731,N,5.1358,K,A*15
   2366687, $GPGGA,003926.00,3908.5189025,N,09622.1427720,W,1,13,0.77,329.7683,M,-28.2900,M,,*66
   2366687, $GNGSA,M,3,31,10,24,14,18,12,20,25,01,32,,,1.35,0.77,1.11*19
   2366687, $GNGSA,M,3,87,75,65,,,,,,,,,,1.35,0.77,1.11*18
   2366687, $GPZDA,003926.00,31,08,2019,00,00*68
   2366687, $GNVTG,221.339,T,,M,2.5684,N,4.7566,K,A*10
   2367686, $GPGGA,003927.00,3908.5182697,N,09622.1434691,W,1,12,0.83,330.2573,M,-28.2900,M,,*61
   2367686, $GNGSA,M,3,31,10,24,14,18,12,20,25,01,32,,,1.43,0.83,1.16*14
   2367686, $GNGSA,M,3,75,65,,,,,,,,,,,1.43,0.83,1.16*1A
   2367686, $GPZDA,003927.00,31,08,2019,00,00*69
   2367686, $GNVTG,237.827,T,,M,2.5144,N,4.6567,K,A*18
   2368686, $GPGGA,003928.00,3908.5179185,N,09622.1442824,W,1,13,0.77,330.1866,M,-28.2900,M,,*6F
   2368686, $GNGSA,M,3,31,10,24,14,18,12,20,25,01,32,,,1.35,0.77,1.11*19
   2368686, $GNGSA,M,3,87,75,65,,,,,,,,,,1.35,0.77,1.11*18
   2368686, $GPZDA,003928.00,31,08,2019,00,00*66
   2368686, $GNVTG,240.572,T,,M,2.6881,N,4.9784,K,A*16
   2369686, $GPGGA,003929.00,3908.5173163,N,09622.1450840,W,1,14,0.69,330.1648,M,-28.2900,M,,*67
   2369686, $GNGSA,M,3,31,10,24,14,18,12,20,25,01,32,,,1.31,0.69,1.11*12
   2369686, $GNGSA,M,3,87,73,75,65,,,,,,,,,1.31,0.69,1.11*17
   2369686, $GPZDA,003929.00,31,08,2019,00,00*67
   2369686, $GNVTG,237.696,T,,M,3.0421,N,5.6340,K,A*1C
   2370686, $GPGGA,003930.00,3908.5168229,N,09622.1458794,W,1,14,0.69,330.0270,M,-28.2900,M,,*68
   2370686, $GNGSA,M,3,31,10,24,14,18,12,20,25,01,32,,,1.31,0.69,1.11*12
   2370686, $GNGSA,M,3,87,73,75,65,,,,,,,,,1.31,0.69,1.11*17
   2370686, $GPZDA,003930.00,31,08,2019,00,00*6F
   2370686, $GNVTG,235.997,T,,M,2.9036,N,5.3774,K,A*1C
   2371688, $GPGGA,003931.00,3908.5162559,N,09622.1466416,W,1,14,0.69,330.1828,M,-28.2899,M,,*60
   2371688, $GNGSA,M,3,31,10,24,14,18,12,20,25,01,32,,,1.31,0.69,1.11*12
   2371688, $GNGSA,M,3,87,73,75,65,,,,,,,,,1.31,0.69,1.11*17
   2371688, $GPZDA,003931.00,31,08,2019,00,00*6E
   2371688, $GNVTG,239.170,T,,M,2.8770,N,5.3281,K,A*1A
   2372687, $GPGGA,003932.00,3908.5157634,N,09622.1474150,W,1,14,0.69,330.3343,M,-28.2899,M,,*6D
   2372687, $GNGSA,M,3,31,10,24,14,18,12,20,25,01,32,,,1.31,0.69,1.11*12
   2372687, $GNGSA,M,3,87,73,75,65,,,,,,,,,1.31,0.69,1.11*17
   2372687, $GPZDA,003932.00,31,08,2019,00,00*6D
   2372687, $GNVTG,229.054,T,,M,2.6754,N,4.9548,K,A*1D
   2373686, $GPGGA,003933.00,3908.5152415,N,09622.1481544,W,1,14,0.69,330.4676,M,-28.2899,M,,*67
   2373686, $GNGSA,M,3,31,10,24,14,18,12,20,25,01,32,,,1.31,0.69,1.11*12
   2373686, $GNGSA,M,3,87,73,75,65,,,,,,,,,1.31,0.69,1.11*17
   2373686, $GPZDA,003933.00,31,08,2019,00,00*6C
   2373686, $GNVTG,225.683,T,,M,3.0509,N,5.6503,K,A*11
   2374687, $GPGGA,003934.00,3908.5148054,N,09622.1490199,W,1,14,0.69,330.1069,M,-28.2899,M,,*63
   2374687, $GNGSA,M,3,31,10,24,14,18,12,20,25,01,32,,,1.31,0.69,1.11*12
   2374687, $GNGSA,M,3,87,73,75,65,,,,,,,,,1.31,0.69,1.11*17
   2374687, $GPZDA,003934.00,31,08,2019,00,00*6B
   2374687, $GNVTG,227.855,T,,M,2.8909,N,5.3539,K,A*1F
   2375686, $GPGGA,003935.00,3908.5144899,N,09622.1499700,W,1,14,0.69,329.4303,M,-28.2899,M,,*6A
   2375686, $GNGSA,M,3,31,10,24,14,18,12,20,25,01,32,,,1.31,0.69,1.11*12
   2375686, $GNGSA,M,3,87,73,75,65,,,,,,,,,1.31,0.69,1.11*17
   2375686, $GPZDA,003935.00,31,08,2019,00,00*6A
   2375686, $GNVTG,230.033,T,,M,2.8923,N,5.3565,K,A*10
   2376686, $GPGGA,003936.00,3908.5138509,N,09622.1504747,W,1,12,0.87,330.7807,M,-28.2898,M,,*63
   2376686, $GNGSA,M,3,31,10,24,14,18,12,20,25,32,,,,1.65,0.87,1.41*17
   2376686, $GNGSA,M,3,73,75,65,,,,,,,,,,1.65,0.87,1.41*1C
   2376686, $GPZDA,003936.00,31,08,2019,00,00*69
   2376686, $GNVTG,238.079,T,,M,2.4263,N,4.4936,K,A*19
   2377685, $GPGGA,003937.00,3908.5134843,N,09622.1513532,W,1,12,0.87,330.7615,M,-28.2898,M,,*66
   2377685, $GNGSA,M,3,31,10,24,14,18,12,20,25,32,,,,1.65,0.87,1.41*17
   2377685, $GNGSA,M,3,73,75,65,,,,,,,,,,1.65,0.87,1.41*1C
   2377685, $GPZDA,003937.00,31,08,2019,00,00*68
   2377685, $GNVTG,243.965,T,,M,2.5856,N,4.7886,K,A*15
   2378684, $GPGGA,003938.00,3908.5131216,N,09622.1522458,W,1,13,0.78,330.6870,M,-28.2898,M,,*64
   2378684, $GNGSA,M,3,31,10,24,14,18,12,20,25,32,,,,1.53,0.78,1.32*16
   2378684, $GNGSA,M,3,87,73,75,65,,,,,,,,,1.53,0.78,1.32*12
   2378684, $GPZDA,003938.00,31,08,2019,00,00*67
   2378684, $GNVTG,245.152,T,,M,2.4748,N,4.5834,K,A*15
   2379686, $GPGGA,003939.00,3908.5127488,N,09622.1530681,W,1,13,0.78,330.5604,M,-28.2898,M,,*68
   2379686, $GNGSA,M,3,31,10,24,14,18,12,20,25,32,,,,1.53,0.78,1.32*16
   2379686, $GNGSA,M,3,87,73,75,65,,,,,,,,,1.53,0.78,1.32*12
   2379686, $GPZDA,003939.00,31,08,2019,00,00*66
   2379686, $GNVTG,246.338,T,,M,2.9213,N,5.4103,K,A*13
   2380685, $GPGGA,003940.00,3908.5123567,N,09622.1538966,W,1,13,0.78,330.5145,M,-28.2898,M,,*6E
   2380685, $GNGSA,M,3,31,10,24,14,18,12,20,25,32,,,,1.53,0.78,1.32*16
   2380685, $GNGSA,M,3,87,73,75,65,,,,,,,,,1.53,0.78,1.32*12
   2380685, $GPZDA,003940.00,31,08,2019,00,00*68
   2380685, $GNVTG,249.130,T,,M,2.8395,N,5.2587,K,A*16
   2381686, $GPGGA,003941.00,3908.5120128,N,09622.1547641,W,1,13,0.78,330.5247,M,-28.2897,M,,*6F
   2381686, $GNGSA,M,3,31,10,24,14,18,12,20,25,32,,,,1.53,0.78,1.32*16
   2381686, $GNGSA,M,3,87,73,75,65,,,,,,,,,1.53,0.78,1.32*12
   2381686, $GPZDA,003941.00,31,08,2019,00,00*69
   2381686, $GNVTG,243.092,T,,M,2.7209,N,5.0391,K,A*1D
   2382685, $GPGGA,003942.00,3908.5117029,N,09622.1556115,W,1,13,0.78,330.4983,M,-28.2897,M,,*6C
   2382685, $GNGSA,M,3,31,10,24,14,18,12,20,25,32,,,,1.53,0.78,1.32*16
   2382685, $GNGSA,M,3,87,73,75,65,,,,,,,,,1.53,0.78,1.32*12
   2382685, $GPZDA,003942.00,31,08,2019,00,00*6A
   2382685, $GNVTG,232.460,T,,M,2.7844,N,5.1566,K,A*1E
   2383685, $GPGGA,003943.00,3908.5113155,N,09622.1564821,W,1,13,0.78,330.3303,M,-28.2897,M,,*69
   2383685, $GNGSA,M,3,31,10,24,14,18,12,20,25,32,,,,1.53,0.78,1.32*16
   2383685, $GNGSA,M,3,87,73,75,65,,,,,,,,,1.53,0.78,1.32*12
   2383685, $GPZDA,003943.00,31,08,2019,00,00*6B
   2383685, $GNVTG,235.852,T,,M,2.8502,N,5.2786,K,A*1B
   2384686, $GPGGA,003944.00,3908.5110448,N,09622.1573238,W,1,12,0.85,330.2712,M,-28.2897,M,,*66
   2384686, $GNGSA,M,3,31,10,24,14,18,12,20,25,32,,,,1.57,0.85,1.32*10
   2384686, $GNGSA,M,3,87,75,65,,,,,,,,,,1.57,0.85,1.32*10
   2384686, $GPZDA,003944.00,31,08,2019,00,00*6C
   2384686, $GNVTG,246.799,T,,M,2.5418,N,4.7073,K,A*19
   2385686, $GPGGA,003945.00,3908.5106741,N,09622.1583514,W,1,12,0.87,330.1818,M,-28.2897,M,,*68
   2385686, $GNGSA,M,3,31,10,24,14,18,12,20,25,32,,,,1.65,0.87,1.41*17
   2385686, $GNGSA,M,3,73,75,65,,,,,,,,,,1.65,0.87,1.41*1C
   2385686, $GPZDA,003945.00,31,08,2019,00,00*6D
   2385686, $GNVTG,254.814,T,,M,2.4846,N,4.6016,K,A*14
   2386685, $GPGGA,003946.00,3908.5104766,N,09622.1592939,W,1,14,0.75,329.9225,M,-28.2896,M,,*61
   2386685, $GNGSA,M,3,31,10,24,14,18,12,20,25,32,,,,1.44,0.75,1.23*1D
   2386685, $GNGSA,M,3,72,87,73,75,65,,,,,,,,1.44,0.75,1.23*1C
   2386685, $GPZDA,003946.00,31,08,2019,00,00*6E
   2386685, $GNVTG,259.689,T,,M,2.4214,N,4.4844,K,A*13
   2387686, $GPGGA,003947.00,3908.5102832,N,09622.1602013,W,1,14,0.75,329.7254,M,-28.2896,M,,*6B
   2387686, $GNGSA,M,3,31,10,24,14,18,12,20,25,32,,,,1.44,0.75,1.23*1D
   2387686, $GNGSA,M,3,72,87,73,75,65,,,,,,,,1.44,0.75,1.23*1C
   2387686, $GPZDA,003947.00,31,08,2019,00,00*6F
   2387686, $GNVTG,263.430,T,,M,2.8316,N,5.2441,K,A*1B
   2388685, $GPGGA,003948.00,3908.5101510,N,09622.1611614,W,1,14,0.76,330.1360,M,-28.2896,M,,*62
   2388685, $GNGSA,M,3,31,10,24,14,18,12,20,32,,,,,1.46,0.76,1.25*1D
   2388685, $GNGSA,M,3,72,71,87,73,75,65,,,,,,,1.46,0.76,1.25*1D
   2388685, $GPZDA,003948.00,31,08,2019,00,00*60
   2388685, $GNVTG,259.545,T,,M,2.8565,N,5.2902,K,A*19
   2389686, $GPGGA,003949.00,3908.5097721,N,09622.1619797,W,1,15,0.74,329.4985,M,-28.2896,M,,*60
   2389686, $GNGSA,M,3,31,10,24,14,18,12,20,25,32,,,,1.42,0.74,1.21*18
   2389686, $GNGSA,M,3,72,71,87,73,75,65,,,,,,,1.42,0.74,1.21*1F
   2389686, $GPZDA,003949.00,31,08,2019,00,00*61
   2389686, $GNVTG,252.034,T,,M,2.6629,N,4.9316,K,A*11
   2390685, $GPGGA,003950.00,3908.5095346,N,09622.1628810,W,1,14,0.77,329.3792,M,-28.2896,M,,*60
   2390685, $GNGSA,M,3,31,10,24,14,18,12,20,25,32,,,,1.44,0.77,1.22*1E
   2390685, $GNGSA,M,3,72,71,87,75,65,,,,,,,,1.44,0.77,1.22*1D
   2390685, $GPZDA,003950.00,31,08,2019,00,00*69
   2390685, $GNVTG,243.252,T,,M,3.0003,N,5.5566,K,A*16
   2391686, $GPGGA,003951.00,3908.5093090,N,09622.1638139,W,1,15,0.74,329.4903,M,-28.2895,M,,*6C
   2391686, $GNGSA,M,3,31,10,24,14,18,12,20,25,32,,,,1.42,0.74,1.21*18
   2391686, $GNGSA,M,3,72,71,87,73,75,65,,,,,,,1.42,0.74,1.21*1F
   2391686, $GPZDA,003951.00,31,08,2019,00,00*68
   2391686, $GNVTG,242.567,T,,M,3.0285,N,5.6088,K,A*1C
   2392686, $GPGGA,003952.00,3908.5091071,N,09622.1648104,W,1,14,0.84,329.5709,M,-28.2895,M,,*60
   2392686, $GNGSA,M,3,31,10,24,14,18,12,20,25,32,,,,1.53,0.84,1.29*1F
   2392686, $GNGSA,M,3,72,71,73,75,65,,,,,,,,1.53,0.84,1.29*17
   2392686, $GPZDA,003952.00,31,08,2019,00,00*6B
   2392686, $GNVTG,248.777,T,,M,2.8278,N,5.2371,K,A*1F
   2393686, $GPGGA,003953.00,3908.5089515,N,09622.1656977,W,1,14,0.77,329.7626,M,-28.2895,M,,*6E
   2393686, $GNGSA,M,3,31,10,24,14,18,12,20,25,32,,,,1.44,0.77,1.22*1E
   2393686, $GNGSA,M,3,72,71,87,75,65,,,,,,,,1.44,0.77,1.22*1D
   2393686, $GPZDA,003953.00,31,08,2019,00,00*6A
   2393686, $GNVTG,253.246,T,,M,2.4433,N,4.5249,K,A*1B
   2394685, $GPGGA,003954.00,3908.5087207,N,09622.1666371,W,1,14,0.77,329.7319,M,-28.2895,M,,*65
   2394685, $GNGSA,M,3,31,10,24,14,18,12,20,25,32,,,,1.44,0.77,1.22*1E
   2394685, $GNGSA,M,3,72,71,87,75,65,,,,,,,,1.44,0.77,1.22*1D
   2394685, $GPZDA,003954.00,31,08,2019,00,00*6D
   2394685, $GNVTG,257.590,T,,M,2.4239,N,4.4891,K,A*11
   2395685, $GPGGA,003955.00,3908.5085745,N,09622.1675633,W,1,15,0.74,329.6438,M,-28.2895,M,,*63
   2395685, $GNGSA,M,3,31,10,24,14,18,21,12,20,25,32,,,1.38,0.74,1.17*13
   2395685, $GNGSA,M,3,72,71,87,75,65,,,,,,,,1.38,0.74,1.17*13
   2395685, $GPZDA,003955.00,31,08,2019,00,00*6C
   2395685, $GNVTG,266.352,T,,M,2.9665,N,5.4939,K,A*19
   2396686, $GPGGA,003956.00,3908.5084538,N,09622.1685576,W,1,15,0.74,329.7036,M,-28.2894,M,,*6E
   2396686, $GNGSA,M,3,31,10,24,14,18,21,12,20,25,32,,,1.38,0.74,1.17*13
   2396686, $GNGSA,M,3,72,71,87,75,65,,,,,,,,1.38,0.74,1.17*13
   2396686, $GPZDA,003956.00,31,08,2019,00,00*6F
   2396686, $GNVTG,267.632,T,,M,2.9287,N,5.4240,K,A*16
   2397685, $GPGGA,003957.00,3908.5083216,N,09622.1695891,W,1,14,0.75,330.1872,M,-28.2894,M,,*60
   2397685, $GNGSA,M,3,31,10,24,14,18,21,12,20,32,,,,1.40,0.75,1.19*14
   2397685, $GNGSA,M,3,72,71,87,75,65,,,,,,,,1.40,0.75,1.19*13
   2397685, $GPZDA,003957.00,31,08,2019,00,00*6E
   2397685, $GNVTG,258.171,T,,M,2.7441,N,5.0821,K,A*11
   2398686, $GPGGA,003958.00,3908.5079821,N,09622.1705790,W,1,13,0.79,329.9224,M,-28.2894,M,,*60
   2398686, $GNGSA,M,3,31,10,24,14,18,12,20,32,,,,,1.49,0.79,1.26*1E
   2398686, $GNGSA,M,3,72,71,87,75,65,,,,,,,,1.49,0.79,1.26*1A
   2398686, $GPZDA,003958.00,31,08,2019,00,00*61
   2398686, $GNVTG,247.561,T,,M,2.7046,N,5.0088,K,A*12
   2399686, $GPGGA,003959.00,3908.5078307,N,09622.1714381,W,1,14,0.76,329.9726,M,-28.2894,M,,*64
   2399686, $GNGSA,M,3,31,10,24,14,18,21,12,20,25,32,,,1.43,0.76,1.21*18
   2399686, $GNGSA,M,3,72,87,75,65,,,,,,,,,1.43,0.76,1.21*1E
   2399686, $GPZDA,003959.00,31,08,2019,00,00*60
   2399686, $GNVTG,247.946,T,,M,2.8988,N,5.3686,K,A*14
   2400685, $GPGGA,004000.00,3908.5076933,N,09622.1725617,W,1,12,0.83,329.9910,M,-28.2894,M,,*6A
   2400685, $GNGSA,M,3,31,10,24,14,18,21,12,20,32,,,,1.54,0.83,1.30*13
   2400685, $GNGSA,M,3,72,75,65,,,,,,,,,,1.54,0.83,1.30*1D
   2400685, $GPZDA,004000.00,31,08,2019,00,00*62
   2400685, $GNVTG,255.678,T,,M,2.6761,N,4.9562,K,A*10
   2401685, $GPGGA,004001.00,3908.5076275,N,09622.1734250,W,1,13,0.77,330.1181,M,-28.2893,M,,*68
   2401685, $GNGSA,M,3,31,10,24,14,18,21,12,20,32,,,,1.46,0.77,1.24*1E
   2401685, $GNGSA,M,3,72,87,75,65,,,,,,,,,1.46,0.77,1.24*1F
   2401685, $GPZDA,004001.00,31,08,2019,00,00*63
   2401685, $GNVTG,249.494,T,,M,2.3451,N,4.3432,K,A*16
   2402685, $GPGGA,004002.00,3908.5073633,N,09622.1742198,W,1,14,0.76,329.7288,M,-28.2893,M,,*6C
   2402685, $GNGSA,M,3,31,10,24,14,18,21,12,20,25,32,,,1.43,0.76,1.21*18
   2402685, $GNGSA,M,3,72,87,75,65,,,,,,,,,1.43,0.76,1.21*1E
   2402685, $GPZDA,004002.00,31,08,2019,00,00*60
   2402685, $GNVTG,253.868,T,,M,2.3975,N,4.4401,K,A*1E
   2403686, $GPGGA,004003.00,3908.5072464,N,09622.1752852,W,1,13,0.77,330.1197,M,-28.2893,M,,*67
   2403686, $GNGSA,M,3,31,10,24,14,18,21,12,20,32,,,,1.46,0.77,1.24*1E
   2403686, $GNGSA,M,3,72,87,75,65,,,,,,,,,1.46,0.77,1.24*1F
   2403686, $GPZDA,004003.00,31,08,2019,00,00*61
   2403686, $GNVTG,267.739,T,,M,2.9381,N,5.4414,K,A*1C
   2404686, $GPGGA,004004.00,3908.5071268,N,09622.1762437,W,1,13,0.77,330.0374,M,-28.2893,M,,*6B
   2404686, $GNGSA,M,3,31,10,24,14,18,21,12,20,32,,,,1.46,0.77,1.24*1E
   2404686, $GNGSA,M,3,72,87,75,65,,,,,,,,,1.46,0.77,1.24*1F
   2404686, $GPZDA,004004.00,31,08,2019,00,00*66
   2404686, $GNVTG,271.117,T,,M,2.9984,N,5.5530,K,A*18
   2405685, $GPGGA,004005.00,3908.5069666,N,09622.1772087,W,1,13,0.77,330.0713,M,-28.2893,M,,*62
   2405685, $GNGSA,M,3,31,10,24,14,18,21,12,20,32,,,,1.46,0.77,1.24*1E
   2405685, $GNGSA,M,3,72,87,75,65,,,,,,,,,1.46,0.77,1.24*1F
   2405685, $GPZDA,004005.00,31,08,2019,00,00*67
   2405685, $GNVTG,262.256,T,,M,2.6318,N,4.8740,K,A*15
   2406686, $GPGGA,004006.00,3908.5067459,N,09622.1781975,W,1,13,0.77,329.9602,M,-28.2892,M,,*68
   2406686, $GNGSA,M,3,31,10,24,14,18,21,12,20,32,,,,1.46,0.77,1.24*1E
   2406686, $GNGSA,M,3,72,87,75,65,,,,,,,,,1.46,0.77,1.24*1F
   2406686, $GPZDA,004006.00,31,08,2019,00,00*64
   2406686, $GNVTG,247.265,T,,M,2.8576,N,5.2923,K,A*12
   2407685, $GPGGA,004007.00,3908.5065050,N,09622.1791380,W,1,12,0.83,329.8116,M,-28.2892,M,,*6E
   2407685, $GNGSA,M,3,31,10,24,14,18,21,12,20,32,,,,1.54,0.83,1.30*13
   2407685, $GNGSA,M,3,72,75,65,,,,,,,,,,1.54,0.83,1.30*1D
   2407685, $GPZDA,004007.00,31,08,2019,00,00*65
   2407685, $GNVTG,239.266,T,,M,2.7106,N,5.0201,K,A*1D
   2408686, $GPGGA,004008.00,3908.5062070,N,09622.1800812,W,1,12,0.81,329.4644,M,-28.2892,M,,*6D
   2408686, $GNGSA,M,3,31,10,24,14,18,12,20,32,,,,,1.55,0.81,1.32*11
   2408686, $GNGSA,M,3,72,87,75,65,,,,,,,,,1.55,0.81,1.32*13
   2408686, $GPZDA,004008.00,31,08,2019,00,00*6A
   2408686, $GNVTG,250.316,T,,M,2.7263,N,5.0491,K,A*1B
   2409685, $GPGGA,004009.00,3908.5059885,N,09622.1810814,W,1,13,0.77,329.3606,M,-28.2892,M,,*68
   2409685, $GNGSA,M,3,31,10,24,14,18,21,12,20,32,,,,1.46,0.77,1.24*1E
   2409685, $GNGSA,M,3,72,87,75,65,,,,,,,,,1.46,0.77,1.24*1F
   2409685, $GPZDA,004009.00,31,08,2019,00,00*6B
   2409685, $GNVTG,253.731,T,,M,2.9110,N,5.3912,K,A*15
   2410685, $GPGGA,004010.00,3908.5058541,N,09622.1820365,W,1,13,0.77,329.5756,M,-28.2892,M,,*68
   2410685, $GNGSA,M,3,31,10,24,14,18,21,12,20,32,,,,1.46,0.77,1.24*1E
   2410685, $GNGSA,M,3,72,87,75,65,,,,,,,,,1.46,0.77,1.24*1F
   2410685, $GPZDA,004010.00,31,08,2019,00,00*63
   2410685, $GNVTG,257.222,T,,M,2.6387,N,4.8869,K,A*12
   2411685, $GPGGA,004011.00,3908.5055375,N,09622.1830764,W,1,11,0.88,329.3294,M,-28.2892,M,,*6E
   2411685, $GNGSA,M,3,31,10,24,14,18,12,20,32,,,,,1.68,0.88,1.43*10
   2411685, $GNGSA,M,3,72,75,65,,,,,,,,,,1.68,0.88,1.43*1D
   2411685, $GPZDA,004011.00,31,08,2019,00,00*62
   2411685, $GNVTG,256.710,T,,M,2.7503,N,5.0936,K,A*1E
   2412685, $GPGGA,004012.00,3908.5053643,N,09622.1840632,W,1,12,0.81,329.3375,M,-28.2891,M,,*69
   2412685, $GNGSA,M,3,31,10,24,14,18,12,20,32,,,,,1.55,0.81,1.32*11
   2412685, $GNGSA,M,3,72,87,75,65,,,,,,,,,1.55,0.81,1.32*13
   2412685, $GPZDA,004012.00,31,08,2019,00,00*61
   2412685, $GNVTG,263.979,T,,M,3.1604,N,5.8531,K,A*19
   2413685, $GPGGA,004013.00,3908.5054490,N,09622.1849598,W,1,13,0.77,330.0145,M,-28.2891,M,,*6B
   2413685, $GNGSA,M,3,31,10,24,14,18,21,12,20,32,,,,1.46,0.77,1.24*1E
   2413685, $GNGSA,M,3,72,87,75,65,,,,,,,,,1.46,0.77,1.24*1F
   2413685, $GPZDA,004013.00,31,08,2019,00,00*60
   2413685, $GNVTG,268.819,T,,M,3.0207,N,5.5943,K,A*17
   2414685, $GPGGA,004014.00,3908.5050247,N,09622.1859819,W,1,12,0.81,329.2561,M,-28.2891,M,,*61
   2414685, $GNGSA,M,3,31,10,24,14,18,12,20,32,,,,,1.55,0.81,1.32*11
   2414685, $GNGSA,M,3,72,87,75,65,,,,,,,,,1.55,0.81,1.32*13
   2414685, $GPZDA,004014.00,31,08,2019,00,00*67
   2414685, $GNVTG,258.799,T,,M,2.7766,N,5.1422,K,A*19
   2415686, $GPGGA,004015.00,3908.5048273,N,09622.1868708,W,1,12,0.81,329.2807,M,-28.2891,M,,*6E
   2415686, $GNGSA,M,3,31,10,24,14,18,12,20,32,,,,,1.55,0.81,1.32*11
   2415686, $GNGSA,M,3,72,87,75,65,,,,,,,,,1.55,0.81,1.32*13
   2415686, $GPZDA,004015.00,31,08,2019,00,00*66
   2415686, $GNVTG,248.284,T,,M,2.6799,N,4.9632,K,A*1A
   2416685, $GPGGA,004016.00,3908.5046124,N,09622.1877498,W,1,12,0.81,329.2618,M,-28.2891,M,,*66
   2416685, $GNGSA,M,3,31,10,24,14,18,12,20,32,,,,,1.55,0.81,1.32*11
   2416685, $GNGSA,M,3,72,87,75,65,,,,,,,,,1.55,0.81,1.32*13
   2416685, $GPZDA,004016.00,31,08,2019,00,00*65
   2416685, $GNVTG,242.196,T,,M,2.9575,N,5.4773,K,A*17
   2417685, $GPGGA,004017.00,3908.5043524,N,09622.1887241,W,1,12,0.81,329.2231,M,-28.2891,M,,*64
   2417685, $GNGSA,M,3,31,10,24,14,18,12,20,32,,,,,1.55,0.81,1.32*11
   2417685, $GNGSA,M,3,72,87,75,65,,,,,,,,,1.55,0.81,1.32*13
   2417685, $GPZDA,004017.00,31,08,2019,00,00*64
   2417685, $GNVTG,252.919,T,,M,2.9470,N,5.4578,K,A*14
   2418686, $GPGGA,004018.00,3908.5041211,N,09622.1896623,W,1,13,0.74,329.3483,M,-28.2891,M,,*6D
   2418686, $GNGSA,M,3,31,10,24,14,18,12,20,32,,,,,1.40,0.74,1.19*16
   2418686, $GNGSA,M,3,72,87,81,75,65,,,,,,,,1.40,0.74,1.19*1D
   2418686, $GPZDA,004018.00,31,08,2019,00,00*6B
   2418686, $GNVTG,255.828,T,,M,2.7652,N,5.1211,K,A*11
   2419686, $GPGGA,004019.00,3908.5039646,N,09622.1906782,W,1,13,0.74,329.3634,M,-28.2891,M,,*69
   2419686, $GNGSA,M,3,31,10,24,14,18,12,20,32,,,,,1.40,0.74,1.19*16
   2419686, $GNGSA,M,3,72,87,81,75,65,,,,,,,,1.40,0.74,1.19*1D
   2419686, $GPZDA,004019.00,31,08,2019,00,00*6A
   2419686, $GNVTG,259.677,T,,M,2.7074,N,5.0141,K,A*1C
   2420685, $GPGGA,004020.00,3908.5038014,N,09622.1916290,W,1,12,0.81,329.4074,M,-28.2891,M,,*6A
   2420685, $GNGSA,M,3,31,10,24,14,18,12,20,32,,,,,1.55,0.81,1.32*11
   2420685, $GNGSA,M,3,72,87,75,65,,,,,,,,,1.55,0.81,1.32*13
   2420685, $GPZDA,004020.00,31,08,2019,00,00*60
   2420685, $GNVTG,259.509,T,,M,2.5849,N,4.7872,K,A*1D
   2421685, $GPGGA,004021.00,3908.5035950,N,09622.1927425,W,1,11,0.88,329.0699,M,-28.2891,M,,*6E
   2421685, $GNGSA,M,3,31,10,24,14,18,12,20,32,,,,,1.68,0.88,1.43*10
   2421685, $GNGSA,M,3,72,75,65,,,,,,,,,,1.68,0.88,1.43*1D
   2421685, $GPZDA,004021.00,31,08,2019,00,00*61
   2421685, $GNVTG,267.272,T,,M,3.0678,N,5.6815,K,A*12
   2422685, $GPGGA,004022.00,3908.5036791,N,09622.1935741,W,1,13,0.77,329.8091,M,-28.2890,M,,*6A
   2422685, $GNGSA,M,3,31,10,24,14,18,21,12,20,32,,,,1.46,0.77,1.23*19
   2422685, $GNGSA,M,3,72,87,75,65,,,,,,,,,1.46,0.77,1.23*18
   2422685, $GPZDA,004022.00,31,08,2019,00,00*62
   2422685, $GNVTG,271.362,T,,M,2.9090,N,5.3874,K,A*1F
   2423686, $GPGGA,004023.00,3908.5035778,N,09622.1945928,W,1,13,0.77,329.8442,M,-28.2890,M,,*63
   2423686, $GNGSA,M,3,31,10,24,14,18,21,12,20,32,,,,1.46,0.77,1.23*19
   2423686, $GNGSA,M,3,72,87,75,65,,,,,,,,,1.46,0.77,1.23*18
   2423686, $GPZDA,004023.00,31,08,2019,00,00*63
   2423686, $GNVTG,262.975,T,,M,2.9546,N,5.4720,K,A*16
   2424685, $GPGGA,004024.00,3908.5035165,N,09622.1956382,W,1,13,0.77,329.8995,M,-28.2890,M,,*61
   2424685, $GNGSA,M,3,31,10,24,14,18,21,12,20,32,,,,1.46,0.77,1.23*19
   2424685, $GNGSA,M,3,72,87,75,65,,,,,,,,,1.46,0.77,1.23*18
   2424685, $GPZDA,004024.00,31,08,2019,00,00*64
   2424685, $GNVTG,260.790,T,,M,2.8988,N,5.3686,K,A*14
   2425686, $GPGGA,004025.00,3908.5032772,N,09622.1967393,W,1,12,0.81,329.1368,M,-28.2890,M,,*6C
   2425686, $GNGSA,M,3,31,10,24,14,18,12,20,32,,,,,1.55,0.81,1.32*11
   2425686, $GNGSA,M,3,72,87,75,65,,,,,,,,,1.55,0.81,1.32*13
   2425686, $GPZDA,004025.00,31,08,2019,00,00*65
   2425686, $GNVTG,260.490,T,,M,2.9895,N,5.5366,K,A*16
   2426686, $GPGGA,004026.00,3908.5034769,N,09622.1977352,W,1,13,0.81,329.9223,M,-28.2890,M,,*68
   2426686, $GNGSA,M,3,31,10,24,14,18,21,12,20,32,,,,1.48,0.81,1.24*19
   2426686, $GNGSA,M,3,72,73,75,65,,,,,,,,,1.48,0.81,1.24*13
   2426686, $GPZDA,004026.00,31,08,2019,00,00*66
   2426686, $GNVTG,262.121,T,,M,3.0018,N,5.5593,K,A*12
   2427685, $GPGGA,004027.00,3908.5033272,N,09622.1988581,W,1,15,0.73,329.1724,M,-28.2889,M,,*60
   2427685, $GNGSA,M,3,31,10,24,14,18,25,21,12,20,32,,,1.37,0.73,1.17*1B
   2427685, $GNGSA,M,3,72,87,73,75,65,,,,,,,,1.37,0.73,1.17*19
   2427685, $GPZDA,004027.00,31,08,2019,00,00*67
   2427685, $GNVTG,275.799,T,,M,2.8475,N,5.2736,K,A*1D
   2428685, $GPGGA,004028.00,3908.5033581,N,09622.1997056,W,1,15,0.73,329.4455,M,-28.2889,M,,*65
   2428685, $GNGSA,M,3,31,10,24,14,18,25,21,12,20,32,,,1.37,0.73,1.17*1B
   2428685, $GNGSA,M,3,72,87,73,75,65,,,,,,,,1.37,0.73,1.17*19
   2428685, $GPZDA,004028.00,31,08,2019,00,00*68
   2428685, $GNVTG,275.969,T,,M,2.6817,N,4.9666,K,A*14
   2429685, $GPGGA,004029.00,3908.5034340,N,09622.2007611,W,1,15,0.73,329.3949,M,-28.2889,M,,*69
   2429685, $GNGSA,M,3,31,10,24,14,18,25,21,12,20,32,,,1.37,0.73,1.17*1B
   2429685, $GNGSA,M,3,72,87,73,75,65,,,,,,,,1.37,0.73,1.17*19
   2429685, $GPZDA,004029.00,31,08,2019,00,00*69
   2429685, $GNVTG,269.897,T,,M,2.7322,N,5.0599,K,A*1E
   2430686, $GPGGA,004030.00,3908.5034808,N,09622.2017518,W,1,15,0.73,329.1599,M,-28.2889,M,,*6E
   2430686, $GNGSA,M,3,31,10,24,14,18,25,21,12,20,32,,,1.37,0.73,1.17*1B
   2430686, $GNGSA,M,3,72,87,73,75,65,,,,,,,,1.37,0.73,1.17*19
   2430686, $GPZDA,004030.00,31,08,2019,00,00*61
   2430686, $GNVTG,283.943,T,,M,2.6760,N,4.9560,K,A*1F
   2431685, $GPGGA,004031.00,3908.5034884,N,09622.2026283,W,1,15,0.73,329.4906,M,-28.2889,M,,*63
   2431685, $GNGSA,M,3,31,10,24,14,18,25,21,12,20,32,,,1.37,0.73,1.17*1B
   2431685, $GNGSA,M,3,72,87,73,75,65,,,,,,,,1.37,0.73,1.17*19
   2431685, $GPZDA,004031.00,31,08,2019,00,00*60
   2431685, $GNVTG,278.848,T,,M,2.7606,N,5.1127,K,A*1F
   2432685, $GPGGA,004032.00,3908.5034718,N,09622.2035871,W,1,15,0.73,329.3309,M,-28.2888,M,,*6C
   2432685, $GNGSA,M,3,31,10,24,14,18,25,21,12,20,32,,,1.37,0.73,1.17*1B
   2432685, $GNGSA,M,3,72,87,73,75,65,,,,,,,,1.37,0.73,1.17*19
   2432685, $GPZDA,004032.00,31,08,2019,00,00*63
   2432685, $GNVTG,273.036,T,,M,2.7724,N,5.1345,K,A*12
   2433687, $GPGGA,004033.00,3908.5034622,N,09622.2045227,W,1,15,0.73,329.4240,M,-28.2888,M,,*60
   2433687, $GNGSA,M,3,31,10,24,14,18,25,21,12,20,32,,,1.37,0.73,1.17*1B
   2433687, $GNGSA,M,3,72,87,73,75,65,,,,,,,,1.37,0.73,1.17*19
   2433687, $GPZDA,004033.00,31,08,2019,00,00*62
   2433687, $GNVTG,261.965,T,,M,2.8391,N,5.2580,K,A*17
   2434685, $GPGGA,004034.00,3908.5033423,N,09622.2054041,W,1,13,0.81,329.1563,M,-28.2888,M,,*69
   2434685, $GNGSA,M,3,31,10,24,14,18,21,12,20,32,,,,1.48,0.81,1.24*19
   2434685, $GNGSA,M,3,72,73,75,65,,,,,,,,,1.48,0.81,1.24*13
   2434685, $GPZDA,004034.00,31,08,2019,00,00*65
   2434685, $GNVTG,262.912,T,,M,2.8114,N,5.2068,K,A*18
   2435685, $GPGGA,004035.00,3908.5034207,N,09622.2063681,W,1,13,0.79,329.2927,M,-28.2888,M,,*69
   2435685, $GNGSA,M,3,31,10,24,14,18,25,12,20,32,,,,1.49,0.79,1.26*19
   2435685, $GNGSA,M,3,72,87,75,65,,,,,,,,,1.49,0.79,1.26*1C
   2435685, $GPZDA,004035.00,31,08,2019,00,00*64
   2435685, $GNVTG,263.368,T,,M,2.5627,N,4.7462,K,A*1E
   2436685, $GPGGA,004036.00,3908.5034396,N,09622.2073066,W,1,15,0.73,329.3914,M,-28.2888,M,,*60
   2436685, $GNGSA,M,3,31,10,24,14,18,25,21,12,20,32,,,1.37,0.73,1.17*1B
   2436685, $GNGSA,M,3,72,87,73,75,65,,,,,,,,1.37,0.73,1.17*19
   2436685, $GPZDA,004036.00,31,08,2019,00,00*67
   2436685, $GNVTG,270.687,T,,M,2.6247,N,4.8610,K,A*11
   2437686, $GPGGA,004037.00,3908.5034327,N,09622.2082614,W,1,15,0.73,329.5529,M,-28.2887,M,,*6D
   2437686, $GNGSA,M,3,31,10,24,14,18,25,21,12,20,32,,,1.37,0.73,1.17*1B
   2437686, $GNGSA,M,3,72,87,73,75,65,,,,,,,,1.37,0.73,1.17*19
   2437686, $GPZDA,004037.00,31,08,2019,00,00*66
   2437686, $GNVTG,273.579,T,,M,2.0026,N,3.7088,K,A*1C
   2438685, $GPGGA,004038.00,3908.5033351,N,09622.2091681,W,1,13,0.77,329.2135,M,-28.2887,M,,*66
   2438685, $GNGSA,M,3,31,10,24,14,18,21,12,20,32,,,,1.46,0.77,1.23*19
   2438685, $GNGSA,M,3,72,87,75,65,,,,,,,,,1.46,0.77,1.23*18
   2438685, $GPZDA,004038.00,31,08,2019,00,00*69
   2438685, $GNVTG,274.715,T,,M,2.8062,N,5.1971,K,A*14
   2439685, $GPGGA,004039.00,3908.5033031,N,09622.2101818,W,1,13,0.77,329.0619,M,-28.2887,M,,*6F
   2439685, $GNGSA,M,3,31,10,24,14,18,12,20,32,,,,,1.50,0.77,1.29*17
   2439685, $GNGSA,M,3,72,87,73,75,65,,,,,,,,1.50,0.77,1.29*11
   2439685, $GPZDA,004039.00,31,08,2019,00,00*68
   2439685, $GNVTG,277.668,T,,M,2.7401,N,5.0746,K,A*19
   2440686, $GPGGA,004040.00,3908.5031960,N,09622.2109982,W,1,12,0.82,329.2936,M,-28.2887,M,,*6F
   2440686, $GNGSA,M,3,31,10,24,14,18,12,32,,,,,,1.56,0.82,1.32*13
   2440686, $GNGSA,M,3,72,87,73,75,65,,,,,,,,1.56,0.82,1.32*17
   2440686, $GPZDA,004040.00,31,08,2019,00,00*66
   2440686, $GNVTG,273.039,T,,M,2.6614,N,4.9289,K,A*16
   2441685, $GPGGA,004041.00,3908.5032041,N,09622.2120784,W,1,12,0.81,329.2586,M,-28.2887,M,,*60
   2441685, $GNGSA,M,3,31,10,24,14,18,12,20,32,,,,,1.55,0.81,1.32*11
   2441685, $GNGSA,M,3,72,87,75,65,,,,,,,,,1.55,0.81,1.32*13
   2441685, $GPZDA,004041.00,31,08,2019,00,00*67
   2441685, $GNVTG,265.330,T,,M,2.8893,N,5.3509,K,A*10
   2442685, $GPGGA,004042.00,3908.5031909,N,09622.2130301,W,1,11,0.88,329.2107,M,-28.2886,M,,*6B
   2442685, $GNGSA,M,3,31,10,24,14,18,12,20,32,,,,,1.69,0.88,1.44*16
   2442685, $GNGSA,M,3,72,75,65,,,,,,,,,,1.69,0.88,1.44*1B
   2442685, $GPZDA,004042.00,31,08,2019,00,00*64
   2442685, $GNVTG,260.169,T,,M,2.5694,N,4.7586,K,A*1D
   2443685, $GPGGA,004043.00,3908.5031530,N,09622.2140194,W,1,13,0.77,329.1900,M,-28.2886,M,,*6B
   2443685, $GNGSA,M,3,31,10,24,14,18,12,20,32,,,,,1.50,0.77,1.29*17
   2443685, $GNGSA,M,3,72,87,73,75,65,,,,,,,,1.50,0.77,1.29*11
   2443685, $GPZDA,004043.00,31,08,2019,00,00*65
   2443685, $GNVTG,257.444,T,,M,2.4536,N,4.5441,K,A*11
   2444685, $GPGGA,004044.00,3908.5031291,N,09622.2149206,W,1,13,0.79,329.1797,M,-28.2886,M,,*6F
   2444685, $GNGSA,M,3,31,10,24,14,18,25,12,20,32,,,,1.49,0.79,1.26*19
   2444685, $GNGSA,M,3,72,87,75,65,,,,,,,,,1.49,0.79,1.26*1C
   2444685, $GPZDA,004044.00,31,08,2019,00,00*62
   2444685, $GNVTG,263.778,T,,M,2.5640,N,4.7485,K,A*13
   2445686, $GPGGA,004045.00,3908.5030053,N,09622.2158654,W,1,13,0.79,329.2302,M,-28.2886,M,,*6B
   2445686, $GNGSA,M,3,31,10,24,14,18,25,12,20,32,,,,1.49,0.79,1.26*19
   2445686, $GNGSA,M,3,72,87,75,65,,,,,,,,,1.49,0.79,1.26*1C
   2445686, $GPZDA,004045.00,31,08,2019,00,00*63
   2445686, $GNVTG,266.762,T,,M,2.7760,N,5.1412,K,A*15
   2446685, $GPGGA,004046.00,3908.5028980,N,09622.2167916,W,1,13,0.79,329.0903,M,-28.2886,M,,*6A
   2446685, $GNGSA,M,3,31,10,24,14,18,25,12,20,32,,,,1.49,0.79,1.26*19
   2446685, $GNGSA,M,3,72,87,75,65,,,,,,,,,1.49,0.79,1.26*1C
   2446685, $GPZDA,004046.00,31,08,2019,00,00*60
   2446685, $GNVTG,270.675,T,,M,2.9215,N,5.4107,K,A*18
   2447686, $GPGGA,004047.00,3908.5026909,N,09622.2177696,W,1,12,0.87,328.8304,M,-28.2885,M,,*65
   2447686, $GNGSA,M,3,31,10,24,14,18,25,12,20,32,,,,1.62,0.87,1.37*11
   2447686, $GNGSA,M,3,72,75,65,,,,,,,,,,1.62,0.87,1.37*1B
   2447686, $GPZDA,004047.00,31,08,2019,00,00*61
   2447686, $GNVTG,262.452,T,,M,2.1949,N,4.0650,K,A*16
   2448685, $GPGGA,004048.00,3908.5026489,N,09622.2186390,W,1,13,0.79,328.6834,M,-28.2885,M,,*64
   2448685, $GNGSA,M,3,31,10,24,14,18,25,12,20,32,,,,1.49,0.79,1.26*19
   2448685, $GNGSA,M,3,72,87,75,65,,,,,,,,,1.49,0.79,1.26*1C
   2448685, $GPZDA,004048.00,31,08,2019,00,00*6E
   2448685, $GNVTG,262.317,T,,M,2.6484,N,4.9049,K,A*1C
   2449685, $GPGGA,004049.00,3908.5026444,N,09622.2195370,W,1,12,0.81,328.6000,M,-28.2885,M,,*61
   2449685, $GNGSA,M,3,31,10,24,14,18,12,20,32,,,,,1.55,0.81,1.32*11
   2449685, $GNGSA,M,3,72,87,75,65,,,,,,,,,1.55,0.81,1.32*13
   2449685, $GPZDA,004049.00,31,08,2019,00,00*6F
   2449685, $GNVTG,255.468,T,,M,2.6532,N,4.9137,K,A*13
   2450685, $GPGGA,004050.00,3908.5021808,N,09622.2195313,W,1,11,0.95,330.4843,M,-28.2885,M,,*6D
   2450685, $GNGSA,M,3,31,10,24,14,12,20,32,,,,,,1.72,0.95,1.44*19
   2450685, $GNGSA,M,3,72,87,75,65,,,,,,,,,1.72,0.95,1.44*12
   2450685, $GPZDA,004050.00,31,08,2019,00,00*67
   2450685, $GNVTG,253.698,T,,M,2.0226,N,3.7459,K,A*18